lat	long	midas	acres	depth_mu	depth_max	elev_ft	management	fish	lake	town				
46.0158	-68.45421	8512	0.2			660	 No fishery	1	Giles Pond	Patten	Salmonids: Brook trout <br	Other Species: <br	Latitude: 46.01580477<br	Longitude: -68.45420575
45.39791	-69.61864	0341	1			1050	 CW	2	Power Trout Pond	Little Squaw Twp	Salmonids: Brook trout <br	Other Species: Ninespine stickleback <br	Latitude: 45.39791031<br	Longitude: -69.61864327
44.39067	-68.25155	0463	1	14	20	250	 CW	4	Halfmoon Pond	Bar Harbor	Salmonids: Brook trout <br	Other Species: Banded killifish Golden shiner Northern redbelly dace <br	Latitude: 44.39066503<br	Longitude: -68.25155479
43.68253	-70.45357	0515	1	4	9	190	 No fishery	5	Aldens Pond	Gorham	Salmonids: Brook trout <br	Other Species: Banded killifish Goldfish Pumpkinseed White sucker <br	Latitude: 43.68252814<br	Longitude: -70.45356815
45.9337	-68.87167	2038	1	2	3	1600	 CW	1	Whidden Pond #3	Mount Katahdin Twp	Salmonids: Brook trout <br	Other Species: <br	Latitude: 45.93370124<br	Longitude: -68.87167389
43.80514	-70.82653	2191	1			310	 No fishery	1	Pipe Dream Pond	Cornish	Salmonids: <br	Other Species: Golden shiner <br	Latitude: 43.80514292<br	Longitude: -70.82652904
43.56481	-70.45426	2805	1			140	 WW	6	unnamed pond	Saco	Salmonids: Brook trout <br	Other Species: American eel Brown bullhead Pearl dace White sucker <br	Latitude: 43.56481208<br	Longitude: -70.45426255
43.85589	-70.98793	3156	1			610	 CW	2	Chalk Pond	Porter	Salmonids: Brook trout <br	Other Species: Brown bullhead <br	Latitude: 43.85589271<br	Longitude: -70.98793493
46.20073	-68.3871	3630	1			810	 CW	1	Lost Pond	Moro Plt	Salmonids: Brook trout <br	Other Species: <br	Latitude: 46.20073031<br	Longitude: -68.38710485
43.90224	-70.25321	3713	1			315	 CW	2	Pineland Pond	New Gloucester	Salmonids: Brook trout <br	Other Species: Goldfish <br	Latitude: 43.90223877<br	Longitude: -70.2532089
44.10691	-70.23454	3749	1			175	 No fishery	1	Pettingill Park Pond	Auburn	Salmonids: Brook trout <br	Other Species: <br	Latitude: 44.10690854<br	Longitude: -70.2345424
45.48092	-70.11425	0059	2			2850	 No fishery	1	Mountain Pond #1	Johnson Mountain Twp	Salmonids: Brook trout <br	Other Species: <br	Latitude: 45.48091942<br	Longitude: -70.11425345
43.28768	-70.829	0143	2		7	185	 CW	2	Mathews Millpond	Berwick	Salmonids: Brook trout <br	Other Species: Brown bullhead <br	Latitude: 43.28767809<br	Longitude: -70.82899672
45.44895	-69.62415	0337	2			1055	 CW	3	Gravel Pit Pond	Little Squaw Twp	Salmonids: Brook trout <br	Other Species: Creek chub Ninespine stickleback <br	Latitude: 45.44894515<br	Longitude: -69.62415447
45.6209	-69.16153	0498	2	5	7	1370	 CW	1	Fox Pond	TA R11 WELS	Salmonids: Brook trout <br	Other Species: <br	Latitude: 45.62089765<br	Longitude: -69.16153023
45.79747	-69.17349	0640	2	2	3	1000	 CW	2	Little Murphy Pond	Rainbow Twp	Salmonids: Brook trout <br	Other Species: Golden shiner <br	Latitude: 45.79747201<br	Longitude: -69.17349167
45.17557	-67.4029	1207	2		32	145	 WW	15	Woodland Flowage	Baileyville	Salmonids: Landlocked salmon <br	Other Species: Alewife-searun American eel Banded killifish Brown bullhead Chain pickerel Fallfish Golden shiner Pumpkinseed Rainbow smelt Smallmouth bass White perch White sucker Yellow perch <br	Latitude: 45.17556522<br	Longitude: -67.40290276
45.23863	-70.53981	2348	2	10	20	1450	 CW	1	Little Tea Pond	Jim Pond Twp	Salmonids: Brook trout <br	Other Species: <br	Latitude: 45.23862732<br	Longitude: -70.53981015
44.85755	-70.98376	3322	2			1305	 CW	8	Skunk Pond	Magalloway Plt	Salmonids: Brook trout <br	Other Species: Common shiner Creek chub Fallfish Golden shiner Lake chub White sucker Yellow perch <br	Latitude: 44.85754796<br	Longitude: -70.98375614
46.19092	-68.38887	3634	2			675	 CW	1	Rock Pond	Moro Plt	Salmonids: Brook trout <br	Other Species: <br	Latitude: 46.19091542<br	Longitude: -68.38887471
43.8557	-70.43606	3722	2	4	9	290	 No fishery	7	Upper Mud Pond	Windham	Salmonids: <br	Other Species: Chain pickerel Fathead minnow Golden shiner Largemouth bass Pumpkinseed Smallmouth bass Yellow perch <br	Latitude: 43.85569577<br	Longitude: -70.43605694
44.02777	-70.13187	3809	2			175	 CW	7	Beaver Park Pond #1	Lisbon	Salmonids: Brook trout <br	Other Species: Brown bullhead Golden shiner Largemouth bass White perch White sucker Yellow perch <br	Latitude: 44.02777151<br	Longitude: -70.13187355
44.02836	-70.12717	3811	2			175	 No fishery	2	Beaver Park Pond #3	Lisbon	Salmonids: Brook trout <br	Other Species: Largemouth bass <br	Latitude: 44.02836027<br	Longitude: -70.12716597
43.62709	-70.25528	5639	2			35	 Mix	8	Lower Hinkley Pond	South Portland	Salmonids: Brook trout <br	Other Species: American eel Brown bullhead Chain pickerel Fathead minnow Golden shiner Largemouth bass Pumpkinseed <br	Latitude: 43.62709106<br	Longitude: -70.25528299
45.21968	-71.01507	7660	2			1695	 CW	8	Caribou Pond	Parmachenee Twp	Salmonids: Brook trout <br	Other Species: Brown bullhead Creek chub Fallfish Finescale dace Lake chub Longnose sucker White sucker <br	Latitude: 45.21968151<br	Longitude: -71.01507201
45.37915	-69.47244	9112	2			925	 No fishery	1	unnamed pond	Elliottsville Twp	Salmonids: <br	Other Species: Creek chub <br	Latitude: 45.37914884<br	Longitude: -69.47243568
44.80668	-68.74472	9566	2			25	 CW	1	Penobscot Club Pond	Brewer	Salmonids: Brook trout <br	Other Species: <br	Latitude: 44.80667904<br	Longitude: -68.74472072
45.44492	-70.51637	0027	3			2470	 No fishery	1	Prick Pond	Skinner Twp	Salmonids: Brook trout <br	Other Species: <br	Latitude: 45.44491779<br	Longitude: -70.51637214
45.47878	-70.11482	0160	3			2870	 No fishery	1	Mountain Pond #2	Johnson Mountain Twp	Salmonids: Brook trout <br	Other Species: <br	Latitude: 45.47877656<br	Longitude: -70.11482387
44.67562	-67.83806	0183	3	8	12	215	 Bait	1	South Myers Pond	Columbia	Salmonids: <br	Other Species: Golden shiner <br	Latitude: 44.67561532<br	Longitude: -67.83806281
45.13149	-69.9959	0206	3		8	1225	 CW	6	Brandy Pond	Pleasant Ridge Plt	Salmonids: Brook trout <br	Other Species: Blacknose dace Fathead minnow Finescale dace Northern redbelly dace White sucker <br	Latitude: 45.13149083<br	Longitude: -69.99589914
45.60331	-69.27242	0444	3			1605	 No fishery	2	Fourth West Branch Pd	Shawtown Twp	Salmonids: Brook trout <br	Other Species: Golden shiner <br	Latitude: 45.60331433<br	Longitude: -69.27241885
45.59982	-69.14259	0490	3	3	5	1131	 CW	1	Round Pond	TA R11 WELS	Salmonids: Brook trout <br	Other Species: <br	Latitude: 45.59982297<br	Longitude: -69.14258705
45.62313	-69.17617	0496	3	3	4	1430	 CW	3	Little Boardway (Boardman) Pond	TA R11 WELS	Salmonids: Brook trout <br	Other Species: Creek chub Finescale dace <br	Latitude: 45.62312987<br	Longitude: -69.17617071
45.87402	-69.09124	0682	3			895	 No fishery	1	Sewall Pond	T3 R11 WELS	Salmonids: Brook trout <br	Other Species: <br	Latitude: 45.87401576<br	Longitude: -69.09123592
45.269	-69.34935	0854	3			425	 No fishery	3	Garcock Pond	Willimantic	Salmonids: Brook trout <br	Other Species: Creek chub Golden shiner <br	Latitude: 45.26899703<br	Longitude: -69.349348
47.20803	-69.01175	1488	3	5	6	925	 CW	2	Sowish Lake	T18 R10 WELS	Salmonids: Brook trout <br	Other Species: Blacknose dace <br	Latitude: 47.20802583<br	Longitude: -69.01175274
47.07079	-68.6565	1632	3	2	4	1095	 CW	2	Isie Lake	Eagle Lake	Salmonids: Brook trout <br	Other Species: Northern redbelly dace <br	Latitude: 47.07078753<br	Longitude: -68.6565028
45.76942	-68.58003	2312	3	6	12	305	 WW	6	Round Pond	Soldiertown Twp	Salmonids: <br	Other Species: Chain pickerel Fallfish Pumpkinseed Smallmouth bass White sucker Yellow perch <br	Latitude: 45.76941519<br	Longitude: -68.58003126
45.51121	-70.49311	2670	3			1518	 Remote	3	Round Pond	Appleton Twp	Salmonids: Brook trout <br	Other Species: Creek chub Finescale dace <br	Latitude: 45.51121152<br	Longitude: -70.49310852
44.25848	-70.69886	3490	3			805	 No fishery	1	Speck Pond #1	"Norway, Waterford"	Salmonids: <br	Other Species: Chain pickerel <br	Latitude: 44.25847869<br	Longitude: -70.69886039
43.69142	-70.71237	5004	3			358	 No fishery	2	Foss Pond #2	Limington	Salmonids: <br	Other Species: Chain pickerel <br	Latitude: 43.69141827<br	Longitude: -70.71237172
43.62487	-70.25721	5637	3			50	 Mix	8	Upper Hinkley Pond	South Portland	Salmonids: Brook trout <br	Other Species: American eel Brown bullhead Chain pickerel Fathead minnow Golden shiner Largemouth bass Pumpkinseed <br	Latitude: 43.62487269<br	Longitude: -70.25720916
46.32575	-69.553	6328	3			1115	 No fishery	1	unnamed pond	T8 R14 WELS	Salmonids: <br	Other Species: Northern redbelly dace <br	Latitude: 46.32574697<br	Longitude: -69.55300341
43.39873	-70.62313	6969	3			170	 No fishery	3	Kennebunk Plains Pond	Kennebunk	Salmonids: Brook trout <br	Other Species: American eel Golden shiner <br	Latitude: 43.39873489<br	Longitude: -70.6231287
45.86655	-68.96145	8260	3			1185	 CW	1	Stump Pond	T3 R10 WELS	Salmonids: Brook trout <br	Other Species: <br	Latitude: 45.86654685<br	Longitude: -68.96145363
44.54503	-68.23231	8421	3			150	 Mix	4	Quarry Pond	Sullivan	Salmonids: Brook trout <br	Other Species: Banded killifish Brown bullhead Golden shiner <br	Latitude: 44.54503432<br	Longitude: -68.23230856
45.14468	-70.33151	8601	3	9	23	3130	 CW	1	The Horns Pond	Wyman Twp	Salmonids: Brook trout <br	Other Species: <br	Latitude: 45.14468228<br	Longitude: -70.33151498
45.0535	-70.22583	8619	3	3	8	1250	 CW	1	Little Hammond Pond	Carrabassett Valley	Salmonids: Brook trout <br	Other Species: <br	Latitude: 45.05349611<br	Longitude: -70.2258275
44.9657	-70.17242	0030	4	14	42	595	 CW	3	Pinnacle Pond	Kingfield	Salmonids: Brook trout <br	Other Species: Brown bullhead Redbreast sunfish <br	Latitude: 44.96569987<br	Longitude: -70.17242422
43.09248	-70.75088	0115	4			10	 No fishery	2	Legion Pond	Kittery	Salmonids: <br	Other Species: Goldfish Largemouth bass <br	Latitude: 43.09248273<br	Longitude: -70.75087606
44.67657	-67.83761	0181	4	12	29	212	 Bait	1	North Myers Pond	Columbia	Salmonids: <br	Other Species: Golden shiner <br	Latitude: 44.67656913<br	Longitude: -67.83760661
45.46095	-69.65956	0338	4			1630	 Remote	1	Papoose Pond	Little Squaw Twp	Salmonids: Brook trout <br	Other Species: <br	Latitude: 45.46095409<br	Longitude: -69.65955802
44.77396	-70.26366	0413	4	7	20	1470	 CW	1	Schoolhouse Pond	Avon	Salmonids: Brook trout <br	Other Species: <br	Latitude: 44.77396482<br	Longitude: -70.26365847
43.6735	-70.36417	0517	4			75	 Mix	7	Beaver Pond	Westbrook	Salmonids: Brook trout <br	Other Species: Banded killifish Brown bullhead Chain pickerel Golden shiner Largemouth bass Smallmouth bass <br	Latitude: 43.67350481<br	Longitude: -70.3641685
43.89741	-69.95752	0541	4	5	13	45	 No fishery	2	Coffin Pond	Brunswick	Salmonids: Brook trout <br	Other Species: Ninespine stickleback <br	Latitude: 43.89740989<br	Longitude: -69.95751896
45.7765	-69.07134	0588	4		5	970	 CW	1	Moose Pond	T2 R10 WELS	Salmonids: Brook trout <br	Other Species: <br	Latitude: 45.77649566<br	Longitude: -69.07133955
45.79159	-69.05772	0592	4	12	18	835	 Remote	1	Little Minister Pond	T2 R10 WELS	Salmonids: Brook trout <br	Other Species: <br	Latitude: 45.79158507<br	Longitude: -69.05771975
45.82512	-69.16686	0634	4			1110	 CW	1	Collins Pond	Rainbow Twp	Salmonids: Brook trout <br	Other Species: <br	Latitude: 45.82512085<br	Longitude: -69.16686166
45.90679	-69.04715	0706	4			1075	 CW	3	Deer Pond	T3 R10 WELS	Salmonids: Brook trout <br	Other Species: Golden shiner Northern redbelly dace <br	Latitude: 45.90679388<br	Longitude: -69.04715214
45.34504	-69.4658	0876	4			760	 No fishery	4	Meadow Pond	Monson	Salmonids: Brook trout <br	Other Species: Creek chub Golden shiner Northern redbelly dace <br	Latitude: 45.34504399<br	Longitude: -69.46580396
45.73463	-68.91791	0968	4	3	8	515	 CW	4	Moose Pond	T1 R9 WELS	Salmonids: Brook trout <br	Other Species: Banded killifish Fathead minnow Golden shiner <br	Latitude: 45.73463213<br	Longitude: -68.91790654
45.93922	-68.87092	2036	4	2	2	1585	 CW	1	Whidden Pond #2	Mount Katahdin Twp	Salmonids: Brook trout <br	Other Species: <br	Latitude: 45.93922286<br	Longitude: -68.87092445
45.96857	-70.25839	2564	4			1800	 No fishery	1	Middle Grenier Pond	T4 R5 NBKP	Salmonids: <br	Other Species: Northern redbelly dace <br	Latitude: 45.96857109<br	Longitude: -70.25838765
45.60248	-70.42013	2654	4			1292	 Remote	1	Cedar Pond	Holeb Twp	Salmonids: Brook trout <br	Other Species: <br	Latitude: 45.6024763<br	Longitude: -70.4201303
46.46346	-69.04734	2744	4	2	2	1490	 CW	3	Little Ragged Pond	T9 R10 WELS	Salmonids: Brook trout <br	Other Species: Creek chub Pearl dace <br	Latitude: 46.46346035<br	Longitude: -69.04733648
46.40328	-69.10581	2776	4			1310	 CW	1	Third Currier Pond	T9 R11 WELS	Salmonids: <br	Other Species: Northern redbelly dace <br	Latitude: 46.4032772<br	Longitude: -69.10580799
44.91343	-70.53794	3554	4	10	24	2930	 Remote	1	Ledge Pond	Sandy River Plt	Salmonids: Brook trout <br	Other Species: <br	Latitude: 44.91342772<br	Longitude: -70.53794198
46.19235	-68.46165	3666	4	8	25	1146	 Remote	3	Green Mountain Pond	T6 R6 WELS	Salmonids: Brook trout <br	Other Species: Blacknose dace Northern redbelly dace <br	Latitude: 46.19234819<br	Longitude: -68.46165104
43.96044	-70.34086	3704	4			315	 No fishery	2	The Sinkhole	New Gloucester	Salmonids: <br	Other Species: Brown bullhead Pumpkinseed <br	Latitude: 43.96044391<br	Longitude: -70.34085679
43.85296	-70.43723	3720	4	5	8	290	 No fishery	7	Lower Mud Pond	Windham	Salmonids: <br	Other Species: Chain pickerel Fathead minnow Golden shiner Largemouth bass Pumpkinseed Smallmouth bass Yellow perch <br	Latitude: 43.85296158<br	Longitude: -70.437232
43.40747	-70.63286	3865	4			144	 No fishery	2	Coldwater Pond	Kennebunk	Salmonids: Brook trout <br	Other Species: Golden shiner <br	Latitude: 43.40746541<br	Longitude: -70.63286089
43.64422	-70.95134	3888	4			570	 No fishery	2	Drew Pond	Newfield	Salmonids: <br	Other Species: Brown bullhead Chain pickerel <br	Latitude: 43.64421513<br	Longitude: -70.95133681
46.1466	-69.68226	4020	4			1090	 No fishery	1	Bear Brook Bog	T6 R15 WELS	Salmonids: Brook trout <br	Other Species: <br	Latitude: 46.1465976<br	Longitude: -69.68226029
44.86305	-68.04359	4526	4			500	 CW	1	Gray Pond	Devereaux Twp	Salmonids: Brook trout <br	Other Species: <br	Latitude: 44.86305372<br	Longitude: -68.04358762
43.5155	-70.58897	5038	4	14	36	215	 No fishery	3	Round Pond	Lyman	Salmonids: Brook trout <br	Other Species: Golden shiner White sucker <br	Latitude: 43.51549918<br	Longitude: -70.58897297
43.97251	-70.95694	5570	4	6	12	485	 No fishery	1	Peat Pond	Fryeburg	Salmonids: <br	Other Species: Brown bullhead <br	Latitude: 43.97250811<br	Longitude: -70.95693832
43.89541	-70.89632	5574	4	4	5	605	 No fishery	2	Dyer Pond	Brownfield	Salmonids: <br	Other Species: Brown bullhead Chain pickerel <br	Latitude: 43.89541445<br	Longitude: -70.89631848
43.47121	-70.45713	5620	4	4	7	125	 CW	7	Wilcox Pond	Biddeford	Salmonids: Brook trout <br	Other Species: American eel Banded killifish Brown bullhead Golden shiner Pumpkinseed Threespine stickleback <br	Latitude: 43.47120623<br	Longitude: -70.45713173
44.299	-70.79945	6765	4	8	22	950	 No fishery	1	Mosquito Pond	Albany Twp	Salmonids: Brook trout <br	Other Species: <br	Latitude: 44.29899888<br	Longitude: -70.79945382
44.85318	-70.95852	7712	4			1340	 CW	6	Fox Pond	Magalloway Plt	Salmonids: Brook trout <br	Other Species: Common shiner Fallfish Lake chub White sucker Yellow perch <br	Latitude: 44.85317507<br	Longitude: -70.95852365
45.61099	-70.35407	8934	4			1270	 Remote	1	unnamed pond	Attean Twp	Salmonids: Brook trout <br	Other Species: <br	Latitude: 45.61098566<br	Longitude: -70.35406614
45.59568	-70.42101	8942	4			1239	 Remote	1	unnamed pond	Holeb Twp	Salmonids: Brook trout <br	Other Species: <br	Latitude: 45.59568105<br	Longitude: -70.42100561
45.54783	-69.94743	8958	4			1306	 No fishery	1	unnamed pond	Misery Twp	Salmonids: Brook trout <br	Other Species: <br	Latitude: 45.54782533<br	Longitude: -69.94742532
46.98895	-68.9467	9223	4	4	5	1262	 CW	2	Duck Pond	T15 R9 WELS	Salmonids: Brook trout <br	Other Species: Pearl dace <br	Latitude: 46.98895368<br	Longitude: -68.94669771
44.05317	-70.38198	9691	4	12	21	315	 No fishery	2	Dead Pond	Poland	Salmonids: <br	Other Species: Brown bullhead Golden shiner <br	Latitude: 44.0531698<br	Longitude: -70.38197631
44.90915	-67.72427	9815	4	8	15	232	 CW	4	Berrypatch Pond	T31 MD BPP	Salmonids: Brook trout <br	Other Species: Fallfish Golden shiner Pumpkinseed <br	Latitude: 44.90915345<br	Longitude: -67.72426671
45.46326	-69.51298	9853	4	7	18	1295	 CW	1	Grenell Pond	Greenville	Salmonids: Brook trout <br	Other Species: <br	Latitude: 45.46326372<br	Longitude: -69.51298046
45.00882	-69.8656	0184	5	13	28	375	 CW	6	Tibbetts Pond	Concord Twp	Salmonids: Brook trout <br	Other Species: Creek chub Finescale dace Golden shiner Pumpkinseed White sucker <br	Latitude: 45.00882483<br	Longitude: -69.86560412
45.43521	-69.51327	0378	5			1090	 No fishery	2	Mud Pond	Greenville	Salmonids: <br	Other Species: Golden shiner Northern redbelly dace <br	Latitude: 45.43520514<br	Longitude: -69.51327369
45.02772	-70.81717	0399	5	4	7	1500	 No fishery	4	Mud Pond	Lower Cupsuptic Twp	Salmonids: Brook trout <br	Other Species: Brown bullhead Golden shiner White sucker <br	Latitude: 45.02771808<br	Longitude: -70.81717242
44.40042	-69.82308	0455	5	16	30	272	 Bait	3	Bean Pond	Sidney	Salmonids: <br	Other Species: Golden shiner Ninespine stickleback Pumpkinseed <br	Latitude: 44.40042188<br	Longitude: -69.82307507
46.38816	-67.79055	0521	5	7	12	475	 CW	8	Ritter Lake	Bridgewater	Salmonids: Brook trout <br	Other Species: Blacknose shinerCreek chub Finescale dace Lake chub Ninespine stickleback Northern redbelly dace White sucker <br	Latitude: 46.38815508<br	Longitude: -67.79055273
45.68323	-69.12907	0556	5	2	3	1325	 No fishery	1	Hedgehog Pond	T1 R11 WELS	Salmonids: <br	Other Species: Finescale dace <br	Latitude: 45.68323345<br	Longitude: -69.12907073
45.48421	-69.4542	0786	5	13	24	1870	 Remote	1	Notch Pond	Bowdoin College Grant West Twp	Salmonids: Brook trout <br	Other Species: <br	Latitude: 45.48420802<br	Longitude: -69.45419744
46.44799	-67.99076	1002	5	3	5	915	 CW	2	Ketchum Lake	TD R2 WELS	Salmonids: Brook trout <br	Other Species: Creek chub <br	Latitude: 46.44798739<br	Longitude: -67.99075737
47.29605	-69.29184	1474	5	29	69	970	 CW	5	Rideout Pond	T19 R12 WELS	Salmonids: Brook trout <br	Other Species: Blacknose dace Creek chub Finescale dace White sucker <br	Latitude: 47.29605348<br	Longitude: -69.29184204
47.12102	-68.76045	1558	5	3	4	1070	 CW	4	Little Gilbert (Jalbert) Pond	Saint John Plt	Salmonids: Brook trout <br	Other Species: Blacknose dace Creek chub Northern redbelly dace <br	Latitude: 47.12102458<br	Longitude: -68.76044849
45.8387	-68.8827	2086	5			650	 No fishery	3	Mink Pond	T2 R9 WELS	Salmonids: <br	Other Species: Brown bullhead Pumpkinseed White sucker <br	Latitude: 45.83869525<br	Longitude: -68.88269784
45.99036	-68.74752	2296	5			845	 CW	1	Big Robar Pond	T4 R8 WELS	Salmonids: Brook trout <br	Other Species: <br	Latitude: 45.99035806<br	Longitude: -68.74752114
45.9833	-68.72982	2298	5	5	10	850	 Remote	1	Little Hathorn Pond	T4 R8 WELS	Salmonids: Brook trout <br	Other Species: <br	Latitude: 45.98329669<br	Longitude: -68.72981796
45.58402	-70.3564	2694	5			1264	 Remote	1	Lost Pond	Attean Twp	Salmonids: Brook trout <br	Other Species: <br	Latitude: 45.58402128<br	Longitude: -70.35639923
46.22667	-69.03056	2706	5			821	 Remote	5	Brayley Pond	T7 R10 WELS	Salmonids: Brook trout <br	Other Species: Common shiner Golden shiner Northern redbelly dace White sucker <br	Latitude: 46.22667071<br	Longitude: -69.03056321
45.3162	-70.93485	3366	5			2120	 CW	2	Deer Pond	Bowmantown Twp	Salmonids: Brook trout <br	Other Species: <br	Latitude: 45.31620333<br	Longitude: -70.93485071
44.93619	-70.53791	3542	5	6	15	2720	 CW	1	Rock Pond	Sandy River Plt	Salmonids: Brook trout <br	Other Species: <br	Latitude: 44.93619407<br	Longitude: -70.53791029
44.23055	-70.13964	3792	5	3	14	435	 WW	3	Deane Pond	Greene	Salmonids: <br	Other Species: Chain pickerel Golden shiner Redbreast sunfish <br	Latitude: 44.23054698<br	Longitude: -70.13963888
44.02986	-70.13044	3810	5			165	 No fishery	3	Beaver Park Pond #2	Lisbon	Salmonids: Brook trout <br	Other Species: Largemouth bass Yellow perch <br	Latitude: 44.02986151<br	Longitude: -70.13044219
43.29925	-70.78224	3868	5		6	175	 Mix	4	Cider Mill Pond	North Berwick	Salmonids: Brook trout <br	Other Species: Brown bullhead Chain pickerel White sucker <br	Latitude: 43.29925102<br	Longitude: -70.7822379
43.35133	-70.89042	3870	5			255	 No fishery	3	Wallingford Pond	Lebanon	Salmonids: <br	Other Species: Brown bullhead Pumpkinseed White sucker <br	Latitude: 43.35133395<br	Longitude: -70.89041551
43.45021	-70.90309	3880	5			610	 No fishery	3	Nisbitt Pond	Lebanon	Salmonids: Brook trout <br	Other Species: Brown bullhead Chain pickerel <br	Latitude: 43.45021233<br	Longitude: -70.90308978
46.4173	-68.906	4182	5	3	4	1367	 CW	1	Brown Brook Pond	T9 R9 WELS	Salmonids: Brook trout <br	Other Species: <br	Latitude: 46.41730039<br	Longitude: -68.9060048
45.05921	-68.22715	4772	5		39	345	 CW	2	Trout Pond	T40 MD	Salmonids: Brook trout <br	Other Species: Golden shiner <br	Latitude: 45.0592084<br	Longitude: -68.22714795
43.69009	-70.7106	5002	5			358	 No fishery	2	Foss Pond #1	Limington	Salmonids: <br	Other Species: Chain pickerel <br	Latitude: 43.69009288<br	Longitude: -70.7105978
43.99635	-70.95749	5576	5	8	14	419	 CW	2	Round Pond	Fryeburg	Salmonids: Brook trout <br	Other Species: Chain pickerel <br	Latitude: 43.99634758<br	Longitude: -70.9574918
43.54339	-70.39469	6859	5	4	10	30	 CW	14	Milliken Mills Pond	Old Orchard Beach	Salmonids: Brook trout <br	Other Species: Alewife-searun American eel Banded killifish Brown bullhead Chain pickerel Common carp Common shiner Golden shiner Largemouth bass Pumpkinseed Threespine stickleback White sucker Yellow perch <br	Latitude: 43.54339048<br	Longitude: -70.39468826
45.9458	-70.06723	7115	5			1620	 Remote	1	unnamed pond	Comstock Twp	Salmonids: Brook trout <br	Other Species: <br	Latitude: 45.94580193<br	Longitude: -70.06723095
45.59418	-70.45285	8894	5	4	6	1395	 No fishery	1	Woodlot Pond	Holeb Twp	Salmonids: <br	Other Species: Finescale dace <br	Latitude: 45.59418108<br	Longitude: -70.45284598
45.73623	-70.30338	8928	5			1775	 No fishery	3	unnamed pond	Sandy Bay Twp	Salmonids: Brook trout <br	Other Species: Finescale dace Northern redbelly dace <br	Latitude: 45.73622703<br	Longitude: -70.30337927
45.64885	-69.18582	9150	5			1350	 No fishery	1	unnamed pond	TA R11 WELS	Salmonids: Brook trout <br	Other Species: <br	Latitude: 45.64885388<br	Longitude: -69.18581606
43.43457	-70.72799	9679	5	10	23	245	 No fishery	1	Sunken Pond	Sanford	Salmonids: <br	Other Species: Brown bullhead <br	Latitude: 43.43456908<br	Longitude: -70.72798907
45.80385	-69.08222	9700	5			1065	 Remote	1	Little Beaver Pond	Rainbow Twp	Salmonids: Brook trout <br	Other Species: <br	Latitude: 45.80384872<br	Longitude: -69.08221714
46.03848	-68.46256	9773	5	3	6	910	 CW	3	Lawton Pond	Mount Chase	Salmonids: Brook trout <br	Other Species: Creek chub White sucker <br	Latitude: 46.03847575<br	Longitude: -68.4625643
45.00692	-70.35867	0176	6			2725	 CW	1	Caribou Pond	Mount Abram Twp	Salmonids: Brook trout <br	Other Species: <br	Latitude: 45.00691564<br	Longitude: -70.35866609
45.19573	-69.94154	0232	6			1245	 CW	4	Decker Pond #1	Caratunk	Salmonids: Brook trout <br	Other Species: Golden shiner Lake chub Northern redbelly dace <br	Latitude: 45.19572825<br	Longitude: -69.94154366
45.20473	-69.67272	0286	6	4	6	1333	 CW	6	Crockett Pond	Blanchard Twp	Salmonids: Brook trout <br	Other Species: Creek chub Finescale dace Golden shiner Northern redbelly dace White sucker <br	Latitude: 45.20473261<br	Longitude: -69.67272318
45.24914	-69.64024	0290	6			1516	 Remote	1	Brackett Pond	Blanchard Twp	Salmonids: Brook trout <br	Other Species: <br	Latitude: 45.24913889<br	Longitude: -69.64023788
44.40633	-69.83407	0465	6	14	24	275	 CW	6	Chamberlain Pond	Belgrade	Salmonids: Brook trout Brown trout <br	Other Species: Brown bullhead Golden shiner Pumpkinseed Smallmouth bass <br	Latitude: 44.4063307<br	Longitude: -69.8340726
45.68421	-69.1178	0552	6	4	11	1245	 CW	2	Rabbit Pond	T1 R11 WELS	Salmonids: Brook trout <br	Other Species: Creek chub <br	Latitude: 45.68421344<br	Longitude: -69.11779951
45.47535	-69.4688	0784	6			1595	 Remote	1	Cranberry Pond	Bowdoin College Grant West Twp	Salmonids: Brook trout <br	Other Species: <br	Latitude: 45.47534662<br	Longitude: -69.4688005
46.21179	-67.86497	1052	6	28	52	445	 CW	6	Deep Lake	Littleton	Salmonids: Brook trout <br	Other Species: Banded killifish Creek chub Fathead minnow Golden shiner Northern redbelly dace <br	Latitude: 46.21179395<br	Longitude: -67.86497313
45.46895	-67.66403	1322	6			485	 Bait	4	Butcher Lake	Codyville Plt	Salmonids: <br	Other Species: Banded killifish Fathead minnow Golden shiner Northern redbelly dace <br	Latitude: 45.46895145<br	Longitude: -67.66402553
45.93353	-68.86876	2034	6	2	4	1612	 CW	1	Whidden Pond #1	Mount Katahdin Twp	Salmonids: Brook trout <br	Other Species: <br	Latitude: 45.93352567<br	Longitude: -68.86875966
45.83528	-68.88817	2090	6			615	 No fishery	2	Helon Taylor Pond	T2 R9 WELS	Salmonids: <br	Other Species: Chain pickerel White sucker <br	Latitude: 45.83527728<br	Longitude: -68.88817313
45.02857	-70.53465	2386	6			2031	 CW	1	Quill Pond	Dallas Plt	Salmonids: Brook trout <br	Other Species: <br	Latitude: 45.02856867<br	Longitude: -70.53465175
45.22981	-71.02225	3110	6	2	4	1695	 CW	6	Billings Pond #2	Parmachenee Twp	Salmonids: Brook trout <br	Other Species: Creek chub Fallfish Lake chub Northern redbelly dace White sucker <br	Latitude: 45.22981324<br	Longitude: -71.02225304
44.23243	-70.79407	3216	6	3	5	590	 WW	3	Whitney Pond	Stoneham	Salmonids: <br	Other Species: Chain pickerel Golden shiner Pumpkinseed <br	Latitude: 44.2324289<br	Longitude: -70.79407232
43.61715	-70.88205	3900	6	7	16	495	 No fishery	4	Round Pond	Newfield	Salmonids: <br	Other Species: Chain pickerel Golden shiner Pumpkinseed Yellow perch <br	Latitude: 43.61715124<br	Longitude: -70.88205407
46.04901	-68.83371	4216	6		9	1895	 CW	1	Traveler Pond	T5 R9 WELS	Salmonids: Brook trout <br	Other Species: <br	Latitude: 46.04901429<br	Longitude: -68.83370741
46.13705	-68.831	4234	6	12	31	925	 CW	1	Round Pond	Trout Brook Twp	Salmonids: Brook trout <br	Other Species: <br	Latitude: 46.1370503<br	Longitude: -68.83099937
44.53678	-68.07221	4398	6			251	 No fishery	3	Little Muckleberry Pd	T7 SD	Salmonids: Brook trout <br	Other Species: Golden shiner White sucker <br	Latitude: 44.53678335<br	Longitude: -68.07221031
44.63289	-68.08491	4422	6		35	295	 CW	5	Salmon Pond	T10 SD	Salmonids: Brook trout <br	Other Species: Banded killifish Golden shiner Pumpkinseed Rainbow smelt <br	Latitude: 44.63288877<br	Longitude: -68.08490961
44.61471	-67.99713	4428	6			143	 No fishery	4	Downing Pond	"T10 SD, Cherryfield"	Salmonids: <br	Other Species: Common shiner Fallfish Pumpkinseed White sucker <br	Latitude: 44.61470803<br	Longitude: -67.99712596
44.98353	-68.47032	4590	6		9	225	 Bait	2	Crocker Pond	T32 MD	Salmonids: <br	Other Species: Fathead minnow Golden shiner <br	Latitude: 44.98353308<br	Longitude: -68.4703191
44.71853	-70.22654	5196	6	9	17	710	 WW	4	Ballard Pond	"Farmington, Temple"	Salmonids: <br	Other Species: Blacknose dace Chain pickerel Creek chub White sucker <br	Latitude: 44.71853004<br	Longitude: -70.22654012
45.24737	-69.75301	7112	6	3	5	1470	 CW	1	unnamed pond	Bald Mountain Twp T2 R3	Salmonids: Brook trout <br	Other Species: <br	Latitude: 45.24737253<br	Longitude: -69.75300729
44.44275	-67.86913	7427	6	10	21	115	 No fishery	2	unnamed pond	Milbridge	Salmonids: <br	Other Species: Chain pickerel Golden shiner <br	Latitude: 44.44274567<br	Longitude: -67.86912978
46.72494	-69.2469	9470	6	3	4	1171	 CW	2	Grey Pond	T12 R12 WELS	Salmonids: Brook trout <br	Other Species: Northern redbelly dace <br	Latitude: 46.72493584<br	Longitude: -69.24690323
46.00248	-68.91159	9616	6	9	20	1360	 CW	1	Deep Pond	T4 R9 WELS	Salmonids: Brook trout <br	Other Species: <br	Latitude: 46.00248484<br	Longitude: -68.91158729
45.07989	-67.80364	9641	6	12	26	275	 CW	5	East Monroe Pond	T43 MD BPP	Salmonids: Brook trout <br	Other Species: Common shiner Golden shiner Ninespine stickleback White sucker <br	Latitude: 45.07989492<br	Longitude: -67.80363848
45.64515	-69.11912	9676	6			1530	 CW	1	Rubberneck Pond	TA R11 WELS	Salmonids: Brook trout <br	Other Species: <br	Latitude: 45.64514601<br	Longitude: -69.11912414
43.76334	-70.50537	9689	6	9	21	241	 Mix	8	Otter Pond #4 (Snake Pond)	Standish	Salmonids: Brook trout <br	Other Species: Brown bullhead Chain pickerel Golden shiner Pumpkinseed Yellow perch <br	Latitude: 43.76333713<br	Longitude: -70.5053651
45.56659	-70.07953	9731	6			1690	 CW	1	Upper Paradise Pond	"Misery Gore Twp, Parlin Pond Twp"	Salmonids: Brook trout <br	Other Species: <br	Latitude: 45.56658915<br	Longitude: -70.07952501
45.04048	-68.73479	9857	6	4	18	189	 No fishery	2	Mansell (Hatch) Pond	Alton	Salmonids: <br	Other Species: Brown bullhead Yellow perch <br	Latitude: 45.04048243<br	Longitude: -68.73479176
44.71858	-67.93813	0003	7	19	52	205	 CW	2	Pineo Pond	Deblois	Salmonids: Brook trout <br	Other Species: Golden shiner <br	Latitude: 44.71857958<br	Longitude: -67.93813392
45.25834	-70.12755	0096	7			1520	 CW	1	Fish Pond	Pierce Pond Twp	Salmonids: Brook trout <br	Other Species: <br	Latitude: 45.25834282<br	Longitude: -70.12755068
45.2979	-70.07293	0112	7	5	15	1285	 CW	3	Split Rock Pond	Pierce Pond Twp	Salmonids: Brook trout <br	Other Species: Banded killifish Finescale dace <br	Latitude: 45.2979039<br	Longitude: -70.07293143
45.17208	-69.98434	0403	7	21	45	495	 CW	2	MacDougall Pond	Caratunk	Salmonids: Brook trout <br	Other Species: Golden shiner <br	Latitude: 45.17207535<br	Longitude: -69.98434414
45.6028	-69.36713	0434	7	15	31	2137	 Remote	2	Bluff Pond	Frenchtown Twp	Salmonids: Brook trout <br	Other Species: Golden shiner <br	Latitude: 45.60279734<br	Longitude: -69.36713296
45.64851	-69.19634	0528	7	2	4	1365	 CW	4	Bear Pond	TA R11 WELS	Salmonids: Brook trout <br	Other Species: Common shiner Creek chub Golden shiner <br	Latitude: 45.64850752<br	Longitude: -69.19633507
43.70926	-70.25303	0529	7	5	9	15	 No fishery	6	Mild Pond	Falmouth	Salmonids: <br	Other Species: American eel Black crappie Brown bullhead Chain pickerel Largemouth bass Pumpkinseed <br	Latitude: 43.70925899<br	Longitude: -70.25303428
45.88574	-69.07437	0612	7			1205	 Remote	1	Little Beaver Pond	T3 R11 WELS	Salmonids: Brook trout <br	Other Species: <br	Latitude: 45.88574431<br	Longitude: -69.0743651
45.83233	-69.09861	0622	7	3	5	1190	 Remote	2	Woodman Pond	Rainbow Twp	Salmonids: Brook trout <br	Other Species: Blacknose dace <br	Latitude: 45.83233392<br	Longitude: -69.09861019
45.81809	-69.17699	0644	7	6	13	1250	 Remote	2	Buck Pond	Rainbow Twp	Salmonids: Brook trout <br	Other Species: Golden shiner <br	Latitude: 45.8180904<br	Longitude: -69.17699239
45.69475	-68.7957	0980	7	4	8	568	 No fishery	1	Marden Pond	T1 R8 WELS	Salmonids: <br	Other Species: Brown bullhead <br	Latitude: 45.69474551<br	Longitude: -68.7957043
44.67601	-67.22313	1398	7		14	90	 CW	4	Ackley Pond	Cutler	Salmonids: Brook trout <br	Other Species: Golden shiner Ninespine stickleback Northern redbelly dace <br	Latitude: 44.67601287<br	Longitude: -67.22312621
47.13444	-68.73953	1624	7	4	5	1150	 No fishery	1	Deer Pond	Saint John Plt	Salmonids: Brook trout <br	Other Species: <br	Latitude: 47.13443543<br	Longitude: -68.73952544
46.17985	-68.23619	1716	7	3	5	1061	 CW	2	Read Lake	Merrill	Salmonids: Brook trout <br	Other Species: Northern redbelly dace <br	Latitude: 46.17985206<br	Longitude: -68.23619183
46.1215	-68.01078	1740	7	4	9	492	 Bait	9	Hannigan Pond	New Limerick	Salmonids: <br	Other Species: American eel Banded killifish Chain pickerel Creek chub Golden shiner Northern redbelly dace Pumpkinseed White sucker Yellow perch <br	Latitude: 46.12149918<br	Longitude: -68.0107752
46.69401	-69.32876	1902	7		5	1115	 CW	2	Threemile Pond	T12 R12 WELS	Salmonids: Brook trout <br	Other Species: Blacknose dace <br	Latitude: 46.69401039<br	Longitude: -69.32875766
45.92182	-68.89459	2044	7	13	30	2453	 CW	1	Basin Pond (Lower)	Mount Katahdin Twp	Salmonids: Brook trout <br	Other Species: <br	Latitude: 45.92181893<br	Longitude: -68.89459135
46.13931	-69.77722	2408	7	3	4	1493	 No fishery	1	Loon Stream Deadwater	Saint John Twp	Salmonids: <br	Other Species: Finescale dace <br	Latitude: 46.13930635<br	Longitude: -69.77721663
46.39939	-69.10109	2772	7			1279	 CW	2	Fourth Currier Pond	T9 R11 WELS	Salmonids: Brook trout <br	Other Species: Northern redbelly dace <br	Latitude: 46.39939056<br	Longitude: -69.10108776
44.94158	-70.84807	3006	7	5	7	1475	 CW	2	Goodwin Pond	Adamstown Twp	Salmonids: Brook trout <br	Other Species: Brown bullhead <br	Latitude: 44.94158276<br	Longitude: -70.84806823
44.62397	-70.97237	3286	7	3	7	1565	 CW	4	York Pond	Grafton Twp	Salmonids: Brook trout <br	Other Species: Blacknose dace Creek chub Golden shiner <br	Latitude: 44.62396517<br	Longitude: -70.97236659
44.85836	-70.99192	3318	7			1300	 Mix	9	Bigelow Pond	Magalloway Plt	Salmonids: Splake <br	Other Species: Brown bullhead Creek chub Fallfish Golden shiner Lake chub Pumpkinseed White sucker Yellow perch <br	Latitude: 44.85835619<br	Longitude: -70.99192362
45.29196	-70.79673	3346	7	4	5	2127	 CW	2	South Boundary Pond	Massachusetts Gore	Salmonids: Brook trout <br	Other Species: Blacknose dace <br	Latitude: 45.29195516<br	Longitude: -70.79672587
44.93122	-70.54184	3544	7	11	29	2705	 Remote	1	Midway Pond	Sandy River Plt	Salmonids: Brook trout <br	Other Species: <br	Latitude: 44.93122074<br	Longitude: -70.54183981
44.85055	-70.58918	3572	7	10	22	2412	 Remote	1	Little Swift River Pd	Township E	Salmonids: Brook trout <br	Other Species: <br	Latitude: 44.8505544<br	Longitude: -70.58917821
44.84544	-70.68578	3585	7	7	19	2328	 Remote	1	Moxie Pond	Township D	Salmonids: Brook trout <br	Other Species: <br	Latitude: 44.84544117<br	Longitude: -70.68577743
44.23089	-70.26229	3740	7	15	36	315	 No fishery	4	Black (Black Snake) Pond	Turner	Salmonids: <br	Other Species: Brown bullhead Golden shiner Largemouth bass Smallmouth bass <br	Latitude: 44.23088703<br	Longitude: -70.26229243
45.1799	-70.98038	3970	7	10	16	1630	 Mix	3	Wells Pond	Parmachenee Twp	Salmonids: Brook trout <br	Other Species: Northern redbelly dace White sucker <br	Latitude: 45.1799004<br	Longitude: -70.98037869
43.46518	-70.57236	3982	7	4	7	98	 WW	4	Brimstone Pond	Arundel	Salmonids: <br	Other Species: Brown bullhead Chain pickerel Yellow perch <br	Latitude: 43.46518324<br	Longitude: -70.57235939
45.49373	-69.96805	4097	7			1430	 No fishery	1	Chub Pond	Chase Stream Twp	Salmonids: Brook trout <br	Other Species: <br	Latitude: 45.49372974<br	Longitude: -69.96804993
44.73463	-68.46685	4364	7			250	 WW	2	Morrison Pond	Otis	Salmonids: <br	Other Species: Chain pickerel Yellow perch <br	Latitude: 44.73463384<br	Longitude: -68.46684718
43.63096	-70.50375	5022	7	5	8	175	 No fishery	7	Duck Pond	Buxton	Salmonids: <br	Other Species: American eel Brown bullhead Chain pickerel Golden shiner Largemouth bass Pumpkinseed White sucker <br	Latitude: 43.63095645<br	Longitude: -70.50374727
45.27073	-70.59755	5056	7	10	27	1350	 CW	3	Blanchard Pond	Alder Stream Twp	Salmonids: Brook trout <br	Other Species: Finescale dace Golden shiner <br	Latitude: 45.27073206<br	Longitude: -70.59754738
44.22644	-70.26132	5788	7	10	21	315	 No fishery	3	Mud Pond	Turner	Salmonids: <br	Other Species: Chain pickerel Largemouth bass Yellow perch <br	Latitude: 44.22644282<br	Longitude: -70.2613158
45.11535	-70.25907	7304	7	5	9	1190	 CW	2	Huston Brook Pond	Dead River Twp	Salmonids: Brook trout <br	Other Species: Finescale dace <br	Latitude: 45.11534716<br	Longitude: -70.25906764
46.80523	-69.06892	9466	7			1455	 CW	3	unnamed pond	T13 R10 WELS	Salmonids: Brook trout <br	Other Species: Finescale dace Northern redbelly dace <br	Latitude: 46.8052297<br	Longitude: -69.06892451
43.66583	-70.30785	9681	7	3	4	20	 No fishery	5	Capisic Pond	Portland	Salmonids: <br	Other Species: American eel Banded killifish Brown bullhead Goldfish Ninespine stickleback <br	Latitude: 43.66583107<br	Longitude: -70.30785448
44.24692	-70.55411	9693	7	4	10	415	 No fishery	6	Bird Pond	Norway	Salmonids: <br	Other Species: Brown bullhead Chain pickerel Fallfish Golden shiner Redbreast sunfish White sucker <br	Latitude: 44.24692367<br	Longitude: -70.55410542
47.0367	-69.46785	9765	7	4	7	1115	 Remote	2	Two Mile Pond	"T16 R13 WELS, T16 R14 WELS"	Salmonids: Brook trout <br	Other Species: Northern redbelly dace <br	Latitude: 47.03670231<br	Longitude: -69.46784793
46.13444	-67.99201	9775	7	4	5	455	 CW	7	Lambert Pond	New Limerick	Salmonids: Brook trout <br	Other Species: Blacknose dace Blacknose shinerFathead minnow Ninespine stickleback Northern redbelly dace Pumpkinseed <br	Latitude: 46.13443986<br	Longitude: -67.99201325
45.37386	-70.72873	9919	7	4	6	1330	 CW	2	Caribou Bog	Chain of Ponds Twp	Salmonids: Brook trout <br	Other Species: Northern redbelly dace <br	Latitude: 45.37386322<br	Longitude: -70.72872646
44.39817	-69.82389	0019	8	14	42	272	 No fishery	5	Emery (Mud) Pond	Sidney	Salmonids: Brown trout <br	Other Species: Golden shiner Ninespine stickleback Pumpkinseed Yellow perch <br	Latitude: 44.39817151<br	Longitude: -69.8238863
45.00305	-70.20459	0032	8	12	30	1301	 CW	5	Grindstone Pond	Kingfield	Salmonids: Brook trout <br	Other Species: Blacknose dace Creek chub Northern redbelly dace White sucker <br	Latitude: 45.00305403<br	Longitude: -70.20459272
45.26778	-70.11966	0092	8	13	25	2079	 Remote	1	High Pond	Pierce Pond Twp	Salmonids: Brook trout <br	Other Species: <br	Latitude: 45.26777825<br	Longitude: -70.11966166
45.44286	-69.70481	0326	8	7	21	1605	 Remote	3	LIttle Notch Pond	Little Squaw Twp	Salmonids: Brook trout <br	Other Species: Finescale dace Northern redbelly dace <br	Latitude: 45.44285999<br	Longitude: -69.70480832
43.87912	-69.49525	0365	8	3	7	50	 WW	3	Ice Pond	Bristol	Salmonids: <br	Other Species: American eel Largemouth bass Pumpkinseed <br	Latitude: 43.87912083<br	Longitude: -69.49525306
45.79483	-69.16857	0638	8	10	27	985	 Remote	2	Big Murphy Pond	Rainbow Twp	Salmonids: Brook trout <br	Other Species: Golden shiner <br	Latitude: 45.79483109<br	Longitude: -69.16856688
45.819	-69.18881	0648	8			1060	 Remote	1	Middle Bean Pond	Rainbow Twp	Salmonids: Brook trout <br	Other Species: <br	Latitude: 45.81900222<br	Longitude: -69.18881276
46.1931	-67.85699	1054	8	2	3	445	 Bait	2	Monson Lake	Littleton	Salmonids: <br	Other Species: Fathead minnow Northern redbelly dace <br	Latitude: 46.19309782<br	Longitude: -67.85698799
44.8407	-67.87336	1220	8	3	5	255	 WW	2	Barren Pond	T24 MD BPP	Salmonids: <br	Other Species: Brown bullhead Chain pickerel <br	Latitude: 44.84069961<br	Longitude: -67.87335579
44.75417	-67.45528	1356	8	11	22	211	 No fishery	3	Little Lily Lake	"East Machias, Marshfield"	Salmonids: Brook trout <br	Other Species: Ninespine stickleback White sucker <br	Latitude: 44.75416961<br	Longitude: -67.45527649
46.97395	-68.85145	1508	8	7	12	1303	 Remote	2	Little Black Pd North	T15 R9 WELS	Salmonids: Brook trout <br	Other Species: Creek chub <br	Latitude: 46.9739479<br	Longitude: -68.85144617
46.94857	-68.87786	1526	8	14	27	1170	 CW	3	Galilee Pond	T15 R9 WELS	Salmonids: Brook trout <br	Other Species: Creek chub Northern redbelly dace <br	Latitude: 46.94856791<br	Longitude: -68.87785792
46.91967	-68.38022	1662	8	3	5	795	 No fishery	1	Beaver Pond	T14 R5 WELS	Salmonids: <br	Other Species: Northern redbelly dace <br	Latitude: 46.91966681<br	Longitude: -68.38021655
45.44474	-68.71754	2136	8			725	 Bait	2	Bear Pond	T3 R9 NWP	Salmonids: <br	Other Species: Banded killifish Golden shiner <br	Latitude: 45.44473582<br	Longitude: -68.71754402
45.98263	-70.28821	2560	8	2	3	1656	 CW	1	Fisher Pond #2	T4 R5 NBKP	Salmonids: Brook trout <br	Other Species: <br	Latitude: 45.98262783<br	Longitude: -70.28821289
45.54773	-70.46899	2662	8	2	2	1348	 CW	2	Grassy Pond	Holeb Twp	Salmonids: Brook trout <br	Other Species: <br	Latitude: 45.54772914<br	Longitude: -70.46898816
44.85792	-70.97794	3320	8			1310	 CW	9	Long Pond	Magalloway Plt	Salmonids: Brook trout <br	Other Species: Brown bullhead Common shiner Creek chub Fallfish Golden shiner Lake chub White sucker Yellow perch <br	Latitude: 44.85791898<br	Longitude: -70.97794192
44.74982	-70.54244	3512	8	8	22	2660	 Remote	2	Tumbledown Pond	Township 6 North of Weld	Salmonids: Brook trout <br	Other Species: Golden shiner <br	Latitude: 44.74982298<br	Longitude: -70.54244283
44.87642	-70.50231	3558	8	17	38	1630	 CW	4	Perry Pond	Sandy River Plt	Salmonids: Brook trout <br	Other Species: Golden shiner Pumpkinseed Redbreast sunfish <br	Latitude: 44.87641711<br	Longitude: -70.50231018
44.19324	-70.24256	3800	8	15	39	325	 WW	5	Round Pond	Turner	Salmonids: <br	Other Species: Brown bullhead Chain pickerel Golden shiner White sucker Yellow perch <br	Latitude: 44.19324367<br	Longitude: -70.24255959
46.09331	-69.73718	4034	8			1528	 Remote	1	Little Mucalsea Pond	Russell Pond Twp	Salmonids: Brook trout <br	Other Species: <br	Latitude: 46.09330858<br	Longitude: -69.73718478
46.08274	-69.73773	4036	8			1465	 Remote	1	Big Mucalsea Pond	Russell Pond Twp	Salmonids: Brook trout <br	Other Species: <br	Latitude: 46.08274485<br	Longitude: -69.73772886
46.02967	-68.96443	4214	8	6	10	1592	 CW	1	Little Wassataquoik Lk	T4 R10 WELS	Salmonids: Brook trout <br	Other Species: <br	Latitude: 46.02967443<br	Longitude: -68.96442939
44.88096	-68.42125	4562	8		22	555	 CW	3	Trout Pond	Amherst	Salmonids: Brook trout <br	Other Species: Blacknose shinerGolden shiner <br	Latitude: 44.88095913<br	Longitude: -68.42124696
45.1417	-68.40104	4724	8	6	8	559	 CW	4	Trout Pond	Grand Falls Twp	Salmonids: Brook trout <br	Other Species: American eel Creek chub Golden shiner <br	Latitude: 45.14169672<br	Longitude: -68.40103959
43.75992	-69.83317	5232	8	9	20	70	 No fishery	5	Meetinghouse Pond	Phippsburg	Salmonids: Brown trout <br	Other Species: American eel Golden shiner Largemouth bass Yellow perch <br	Latitude: 43.75991737<br	Longitude: -69.83316681
44.08317	-68.85135	5508	8	12	20	25	 No fishery	4	Round Pond	Vinalhaven	Salmonids: <br	Other Species: American eel Pumpkinseed White perch White sucker <br	Latitude: 44.08317315<br	Longitude: -68.85134763
43.44402	-70.34755	5634	8		3	10	 No fishery	5	Great Pond	Biddeford	Salmonids: <br	Other Species: Brown bullhead Chain pickerel Goldfish Largemouth bass Yellow perch <br	Latitude: 43.4440209<br	Longitude: -70.34755124
45.39756	-67.80142	7419	8	0	9	510	 CW	3	unnamed pond	Topsfield	Salmonids: Brook trout <br	Other Species: Banded killifish Golden shiner <br	Latitude: 45.39755535<br	Longitude: -67.80142162
45.7606	-69.05378	8186	8		32	680	 No fishery	1	unnamed pond	"T1 R10 WELS, T2 R10 WELS"	Salmonids: <br	Other Species: <br	Latitude: 45.76060353<br	Longitude: -69.05378105
45.21499	-68.18885	8379	8		12	336	 No fishery	1	Taylor Pond	T3 ND	Salmonids: <br	Other Species: <br	Latitude: 45.21499012<br	Longitude: -68.18884649
45.1154	-68.27329	8381	8	0	15	295	 Bait	1	unnamed pond	T3 ND	Salmonids: <br	Other Species: Golden shiner <br	Latitude: 45.11540363<br	Longitude: -68.27328667
45.49648	-70.04797	8866	8			1658	 No fishery	1	Campstove Pond	Johnson Mountain Twp	Salmonids: Brook trout <br	Other Species: <br	Latitude: 45.49647911<br	Longitude: -70.04796994
45.51572	-70.04689	8868	8			1675	 Remote	1	Fernald Pond	"Johnson Mountain Twp, Parlin Pond Twp"	Salmonids: Brook trout <br	Other Species: <br	Latitude: 45.51572135<br	Longitude: -70.04688585
46.67515	-69.42275	9468	8	3	6	1170	 No fishery	1	Johns (Jones) Pond	T12 R13 WELS	Salmonids: Brook trout <br	Other Species: <br	Latitude: 46.67514963<br	Longitude: -69.42274755
44.77395	-68.54601	9653	8		26	367	 Bait	3	Snowshoe Pond	Clifton	Salmonids: Brook trout <br	Other Species: Brown bullhead Golden shiner <br	Latitude: 44.77395284<br	Longitude: -68.5460103
45.49232	-69.15927	9662	8		3	1461	 No fishery	1	Saddleback Pond	TB R11 WELS	Salmonids: Brook trout <br	Other Species: <br	Latitude: 45.49231764<br	Longitude: -69.15926953
45.94002	-70.15796	9762	8			1805	 No fishery	1	unnamed pond	Dole Brook Twp	Salmonids: <br	Other Species: Finescale dace <br	Latitude: 45.9400229<br	Longitude: -70.15795972
46.22503	-68.8403	9786	8		25	758	 CW	5	Hill Pond	T7 R9 WELS	Salmonids: Brook trout <br	Other Species: Creek chub Lake chub White sucker Yellow perch <br	Latitude: 46.22503017<br	Longitude: -68.8402978
46.14629	-68.82897	9790	8			995	 WW	3	Littlefield Pond	Trout Brook Twp	Salmonids: Brook trout <br	Other Species: Blacknose dace Creek chub <br	Latitude: 46.14629012<br	Longitude: -68.82897347
45.07765	-67.80692	9811	8	11	36	284	 CW	3	West Monroe Pond	T43 MD BPP	Salmonids: Brook trout <br	Other Species: Golden shiner Ninespine stickleback <br	Latitude: 45.07764757<br	Longitude: -67.80692457
43.898	-69.83672	0039	9	6	10	30	 WW	8	Lily Pond	"Bath, West Bath"	Salmonids: <br	Other Species: American eel Brown bullhead Chain pickerel Golden shiner Largemouth bass Pumpkinseed White perch Yellow perch <br	Latitude: 43.89800259<br	Longitude: -69.83672354
45.13971	-69.69915	0264	9	4	14	1290	 No fishery	3	Hayden Pond	Mayfield Twp	Salmonids: Brook trout <br	Other Species: Finescale dace Lake chub <br	Latitude: 45.13970837<br	Longitude: -69.69915101
45.1859	-69.6324	0306	9			1276	 No fishery	6	Hilton Pond #2	Kingsbury Plt	Salmonids: Brook trout <br	Other Species: Banded killifish Finescale dace Golden shiner Northern redbelly dace White sucker <br	Latitude: 45.18590164<br	Longitude: -69.63240325
45.35614	-69.50189	0366	9	10	24	1152	 Remote	3	Rabbit Pond	Elliottsville Twp	Salmonids: Brook trout <br	Other Species: Lake chub Pearl dace <br	Latitude: 45.35614099<br	Longitude: -69.50188847
45.59166	-69.17568	0486	9			1221	 Remote	2	Murphy Pond	TA R11 WELS	Salmonids: Brook trout <br	Other Species: Lake chub <br	Latitude: 45.59165594<br	Longitude: -69.17568412
45.7691	-69.18054	0652	9	7	17	970	 CW	1	Crescent Pond	Rainbow Twp	Salmonids: Brook trout <br	Other Species: <br	Latitude: 45.76910384<br	Longitude: -69.18054395
45.91821	-69.15282	0704	9	5	7	1233	 CW	2	Jackson Pond #2	T3 R11 WELS	Salmonids: Brook trout <br	Other Species: Finescale dace <br	Latitude: 45.91820899<br	Longitude: -69.15282421
45.42928	-69.28321	0820	9			1066	 No fishery	3	Lost Pond	T7 R9 NWP	Salmonids: <br	Other Species: Finescale dace Redbreast sunfish White sucker <br	Latitude: 45.42927681<br	Longitude: -69.28320886
45.29804	-69.26506	0842	9	4	11	515	 CW	5	Little Grapevine Pond	Bowerbank	Salmonids: Brook trout <br	Other Species: Blacknose dace Creek chub Golden shiner White sucker <br	Latitude: 45.29804164<br	Longitude: -69.26506482
45.36652	-67.82885	1090	9		14	551	 CW	4	Flood Lake	Talmadge	Salmonids: Brook trout <br	Other Species: Banded killifish Blacknose dace White sucker <br	Latitude: 45.36651904<br	Longitude: -67.82885041
45.37643	-67.88891	1098	9	6	11	775	 Remote	6	Trout Lake	Kossuth Twp	Salmonids: Brook trout <br	Other Species: Banded killifish Blacknose dace Fathead minnow Golden shiner Rainbow smelt <br	Latitude: 45.37643324<br	Longitude: -67.88891476
45.03612	-67.20733	1444	9	11	26	395	 CW	3	Upper Penknife Lake	Robbinston	Salmonids: Brook trout <br	Other Species: Finescale dace White sucker <br	Latitude: 45.03612291<br	Longitude: -67.20733373
46.97138	-68.84759	1510	9	5	8	1275	 Remote	2	Little Black Pd South	T15 R9 WELS	Salmonids: Brook trout <br	Other Species: Northern redbelly dace <br	Latitude: 46.9713761<br	Longitude: -68.8475887
47.00223	-67.81422	1868	9	2	4	762	 CW	6	Gerard Pond	Caswell	Salmonids: Brook trout <br	Other Species: Blacknose dace Creek chub Finescale dace Northern redbelly dace Pearl dace <br	Latitude: 47.00222566<br	Longitude: -67.81421763
46.72289	-69.33112	1904	9	1	1	1115	 CW	3	Sweeney Pond	T12 R12 WELS	Salmonids: Brook trout <br	Other Species: Blacknose dace Creek chub <br	Latitude: 46.72289191<br	Longitude: -69.33111971
45.83958	-68.90687	2096	9	8	19	635	 CW	4	Round Pond	T2 R9 WELS	Salmonids: Brook trout <br	Other Species: Creek chub Finescale dace Golden shiner <br	Latitude: 45.83957689<br	Longitude: -68.90686605
46.01663	-70.23762	2453	9	6	20	1768	 CW	1	unnamed pond	T5 R20 WELS	Salmonids: Brook trout <br	Other Species: <br	Latitude: 46.01662631<br	Longitude: -70.23761628
45.87415	-70.21297	2484	9			1690	 Remote	1	Wounded Deer Pond	Prentiss Twp	Salmonids: Brook trout <br	Other Species: <br	Latitude: 45.87414578<br	Longitude: -70.21296763
46.34101	-69.0192	2844	9	2	3	1012	 Bait	2	Black Spruce Pond	T8 R10 WELS	Salmonids: <br	Other Species: Fathead minnow Finescale dace <br	Latitude: 46.34101327<br	Longitude: -69.01920219
45.22601	-71.02399	3108	9	5	12	1695	 CW	4	Billings Pond #1	Parmachenee Twp	Salmonids: Brook trout <br	Other Species: Finescale dace Northern redbelly dace White sucker <br	Latitude: 45.22601307<br	Longitude: -71.02398503
44.67495	-70.86404	3282	9	9	30	2050	 CW	2	Surplus Pond	Andover North Surplus	Salmonids: Brook trout <br	Other Species: Golden shiner <br	Latitude: 44.67494641<br	Longitude: -70.8640443
43.76217	-70.51316	3402	9	14	32	250	 WW	7	Otter Pond #1	Standish	Salmonids: <br	Other Species: Brown bullhead Chain pickerel Golden shiner Largemouth bass Pumpkinseed Yellow perch <br	Latitude: 43.76217461<br	Longitude: -70.51316448
43.76285	-70.50872	3406	9	13	26	242	 WW	5	Otter Pond #3	Standish	Salmonids: <br	Other Species: Brown bullhead Chain pickerel Golden shiner Pumpkinseed Yellow perch <br	Latitude: 43.76285181<br	Longitude: -70.50872404
44.44643	-70.43373	3596	9			560	 No fishery	4	Mud Pond	Peru	Salmonids: <br	Other Species: Brown bullhead Chain pickerel Yellow perch <br	Latitude: 44.44642758<br	Longitude: -70.43372703
46.16225	-68.41946	3642	9			770	 CW	1	Duck Pond	Moro Plt	Salmonids: Brook trout <br	Other Species: <br	Latitude: 46.1622455<br	Longitude: -68.41945783
46.12856	-68.41187	3656	9			943	 CW	1	Bear Mountain Pond	Moro Plt	Salmonids: Brook trout <br	Other Species: <br	Latitude: 46.1285637<br	Longitude: -68.41186611
43.7148	-70.93604	3886	9	17	31	650	 WW	3	Champion Pond	Parsonsfield	Salmonids: <br	Other Species: Black crappie Chain pickerel Largemouth bass <br	Latitude: 43.71480491<br	Longitude: -70.93603944
45.60731	-69.93277	4112	9	5	9	1512	 CW	2	Little Otter Pond	Sandwich Academy Grant Twp	Salmonids: Brook trout <br	Other Species: Northern redbelly dace <br	Latitude: 45.60731145<br	Longitude: -69.93277175
43.91207	-69.4923	4860	9	7	19	122	 CW	3	Hastings Pond	Bristol	Salmonids: Brook trout <br	Other Species: American eel Golden shiner <br	Latitude: 43.91207317<br	Longitude: -69.49229835
46.05478	-70.27593	5162	9			1920	 Remote	1	Line Pond	T5 R20 WELS	Salmonids: Brook trout <br	Other Species: <br	Latitude: 46.05477846<br	Longitude: -70.27593388
43.78421	-69.83458	5228	9	11	24	68	 WW	6	Sprague Pond	Phippsburg	Salmonids: Brook trout <br	Other Species: Chain pickerel Golden shiner Pumpkinseed Yellow perch <br	Latitude: 43.78420796<br	Longitude: -69.83457822
44.40341	-69.82911	5434	9	26	66	275	 No fishery	3	Wellman Pond	"Belgrade, Sidney"	Salmonids: Brown trout <br	Other Species: Golden shiner Pumpkinseed <br	Latitude: 44.40340859<br	Longitude: -69.82910728
46.16007	-69.6316	7073	9			1050	 Remote	1	unnamed pond	T6 R15 WELS	Salmonids: Brook trout <br	Other Species: <br	Latitude: 46.16006918<br	Longitude: -69.63160428
44.38615	-68.25564	9657	9	6	12	250	 CW	9	Upper Breakneck Pond	Bar Harbor	Salmonids: Brook trout <br	Other Species: American eel Banded killifish Creek chub Fathead minnow Golden shiner Northern redbelly dace Pumpkinseed White sucker <br	Latitude: 44.38615188<br	Longitude: -68.25563679
45.56653	-70.07639	9730	9			1660	 CW	1	Lower Paradise Pond	"Misery Gore Twp, Parlin Pond Twp"	Salmonids: Brook trout <br	Other Species: <br	Latitude: 45.56653149<br	Longitude: -70.0763863
45.57844	-70.35821	9746	9			1210	 CW	6	unnamed pond	Attean Twp	Salmonids: Brook trout <br	Other Species: Brown bullhead Common shiner Creek chub Golden shiner White sucker <br	Latitude: 45.57843848<br	Longitude: -70.35820648
45.30946	-70.61012	9921	9	6	10	1289	 CW	1	Bugeye Pond	"Chain of Ponds Twp, Kibby Twp"	Salmonids: Brook trout <br	Other Species: <br	Latitude: 45.309459<br	Longitude: -70.61011554
43.622	-70.68853	0133	10	21	48	335	 No fishery	3	Lone Pond	Waterboro	Salmonids: <br	Other Species: Banded killifish Brown bullhead Golden shiner <br	Latitude: 43.62199909<br	Longitude: -70.68853348
45.45625	-70.20247	0154	10			1630	 Remote	1	McKenney Pond #1	Upper Enchanted Twp	Salmonids: Brook trout <br	Other Species: <br	Latitude: 45.45625401<br	Longitude: -70.20246528
44.30859	-70.82421	0361	10	7	13	824	 CW	2	Crocker (Papoose) Pond	Albany Twp	Salmonids: Brook trout <br	Other Species: Golden shiner <br	Latitude: 44.30858571<br	Longitude: -70.8242077
45.32736	-69.58304	0362	10	6	23	1103	 CW	6	Big Bunker Pond	Shirley	Salmonids: Brook trout <br	Other Species: Common shiner Creek chub Golden shiner Northern redbelly dace White sucker <br	Latitude: 45.32735949<br	Longitude: -69.58304005
45.5366	-69.41218	0422	10			1650	 Remote	1	Baker Pond	Bowdoin College Grant West Twp	Salmonids: Brook trout <br	Other Species: <br	Latitude: 45.53659845<br	Longitude: -69.41217804
45.52401	-69.19706	0466	10	4	7	1775	 Remote	3	Spruce Mtn Ponds-West	TB R11 WELS	Salmonids: Brook trout <br	Other Species: Blacknose dace Golden shiner <br	Latitude: 45.52401499<br	Longitude: -69.19706067
45.60423	-69.14559	0492	10	3	4	1130	 CW	2	Hutchinson Pond	TA R11 WELS	Salmonids: Brook trout <br	Other Species: Blacknose dace <br	Latitude: 45.60422927<br	Longitude: -69.14558606
45.63777	-69.16279	0508	10	2	4	1290	 CW	6	Spruance Pond	TA R11 WELS	Salmonids: Brook trout <br	Other Species: Creek chub Finescale dace Golden shiner Northern redbelly dace White sucker <br	Latitude: 45.63777229<br	Longitude: -69.16278851
47.14111	-68.486	0509	10	4	7	888	 Bait	2	Dimmock Pond	New Canada	Salmonids: Brook trout <br	Other Species: Northern redbelly dace <br	Latitude: 47.14110824<br	Longitude: -68.48600386
45.89198	-69.06817	0712	10	5	17	1210	 CW	1	Celia Pond	T3 R10 WELS	Salmonids: Brook trout <br	Other Species: <br	Latitude: 45.89198326<br	Longitude: -69.06816613
45.97103	-69.09516	0734	10	3	4	1440	 CW	4	Williams Pond	T4 R11 WELS	Salmonids: Brook trout <br	Other Species: Finescale dace Golden shiner Northern redbelly dace <br	Latitude: 45.97103144<br	Longitude: -69.09516252
46.2822	-67.82218	1016	10	4	6	445	 Bait	3	Gentle Lake	Monticello	Salmonids: <br	Other Species: Fathead minnow Finescale dace Northern redbelly dace <br	Latitude: 46.28219953<br	Longitude: -67.82218393
45.19725	-67.76528	1112	10	3	5	290	 WW	7	Bonney Brook Lake	Grand Lake Stream Plt	Salmonids: Brook trout <br	Other Species: Brown bullhead Chain pickerel Common shiner Pumpkinseed Yellow perch <br	Latitude: 45.19724844<br	Longitude: -67.76527753
44.92012	-67.85901	1158	10	9	22	228	 CW	4	Salmon Pond	T30 MD BPP	Salmonids: Brook trout Landlocked salmon <br	Other Species: Golden shiner White sucker <br	Latitude: 44.92011582<br	Longitude: -67.85901475
46.63108	-68.36182	1652	10	4	4	730	 Bait	8	Mud Pond	Ashland	Salmonids: <br	Other Species: Banded killifish Creek chub Finescale dace Golden shiner Northern redbelly dace Pearl dace Threespine stickleback White sucker <br	Latitude: 46.63108226<br	Longitude: -68.36181732
46.99188	-67.90064	1848	10	3	4	753	 CW	3	Butterfield Lake	Caswell	Salmonids: Brook trout <br	Other Species: Northern redbelly dace White sucker <br	Latitude: 46.99188321<br	Longitude: -67.90064374
46.66289	-69.23604	1910	10	3	5	1453	 CW	3	Eyelet Pond	T12 R12 WELS	Salmonids: Brook trout <br	Other Species: Northern redbelly dace Pearl dace <br	Latitude: 46.6628876<br	Longitude: -69.23604174
45.8361	-68.90793	2094	10	4	8	615	 CW	1	Rocky Pond	T2 R9 WELS	Salmonids: Brook trout <br	Other Species: <br	Latitude: 45.83610421<br	Longitude: -68.90792904
45.34389	-68.29663	2238	10	2	4	425	 CW	6	House Pond	Lee	Salmonids: Brook trout <br	Other Species: American eel Banded killifish Blacknose shinerFathead minnow White sucker <br	Latitude: 45.34389364<br	Longitude: -68.29662714
44.86664	-70.3858	2338	10	4	7	765	 CW	2	Long Cove Pond	Phillips	Salmonids: Brook trout <br	Other Species: White sucker <br	Latitude: 44.86664282<br	Longitude: -70.38579965
45.87984	-70.24766	2474	10	7	20	1800	 Remote	3	Mary Petuche Pond	Prentiss Twp	Salmonids: Brook trout <br	Other Species: Creek chub Finescale dace <br	Latitude: 45.87984057<br	Longitude: -70.24765824
45.51179	-70.04672	2548	10			1670	 Remote	2	Snake Pond	Johnson Mountain Twp	Salmonids: Brook trout <br	Other Species: Finescale dace <br	Latitude: 45.51178532<br	Longitude: -70.0467171
44.56375	-70.97306	3288	10	16	36	3400	 Remote	1	Speck Pond	Grafton Twp	Salmonids: Brook trout <br	Other Species: <br	Latitude: 44.56374789<br	Longitude: -70.97305899
45.25083	-70.7745	3358	10	4	9	2027	 CW	2	Secret Pond	Seven Ponds Twp	Salmonids: Brook trout <br	Other Species: Lake chub <br	Latitude: 45.25082915<br	Longitude: -70.7744974
44.4197	-70.52208	3476	10	7	18	910	 CW	4	Washburn Pond	"Sumner, Woodstock"	Salmonids: Brook trout <br	Other Species: Brown bullhead Creek chub Golden shiner <br	Latitude: 44.41970418<br	Longitude: -70.52207758
44.85516	-70.50269	3570	10	5	8	984	 CW	7	Harvey Pond	Madrid Twp	Salmonids: Brook trout <br	Other Species: American eel Blacknose dace Brown bullhead Creek chub Golden shiner White sucker <br	Latitude: 44.85516315<br	Longitude: -70.50269167
44.84126	-70.59245	3576	10	5	21	2216	 CW	1	Swift River Pond	Township E	Salmonids: Brook trout <br	Other Species: <br	Latitude: 44.84125623<br	Longitude: -70.59245334
46.17025	-68.43084	3640	10			870	 CW	1	Huntley Pond	Moro Plt	Salmonids: Brook trout <br	Other Species: <br	Latitude: 46.17024605<br	Longitude: -68.4308374
46.15768	-68.35828	3660	10	3	5	814	 CW	10	Secret Pond	Moro Plt	Salmonids: Brook trout <br	Other Species: American eel Blacknose dace Blacknose shinerCreek chub Fathead minnow Golden shiner Northern redbelly dace Pearl dace White sucker <br	Latitude: 46.15767543<br	Longitude: -68.35828415
46.00866	-68.9277	4196	10		4	1338	 CW	1	Six Ponds #3	T4 R9 WELS	Salmonids: Brook trout <br	Other Species: <br	Latitude: 46.00865674<br	Longitude: -68.92769824
44.85098	-68.02722	4528	10		7	602	 No fishery	1	Mountain Pond	Beddington	Salmonids: <br	Other Species: Golden shiner <br	Latitude: 44.850982<br	Longitude: -68.02721658
43.99833	-69.35404	4862	10	6	8	65	 WW	4	Forest Pond	Friendship	Salmonids: <br	Other Species: American eel Golden shiner Largemouth bass White sucker <br	Latitude: 43.99832921<br	Longitude: -69.35403785
43.85134	-69.84602	5224	10			50	 No fishery	8	Campbell Pond	West Bath	Salmonids: <br	Other Species: Banded killifish Brown bullhead Chain pickerel Golden shiner Pumpkinseed Smallmouth bass White perch Yellow perch <br	Latitude: 43.8513428<br	Longitude: -69.84602187
43.98797	-69.5146	5362	10	11	22	115	 Mix	4	Upper Pond	Bristol	Salmonids: Brook trout <br	Other Species: American eel Chain pickerel Pumpkinseed <br	Latitude: 43.98796924<br	Longitude: -69.51459612
44.99202	-69.31932	5474	10	12	27	292	 WW	7	Gould Pond	Dexter	Salmonids: <br	Other Species: American eel Brown bullhead Chain pickerel Golden shiner Pumpkinseed White sucker Yellow perch <br	Latitude: 44.99202133<br	Longitude: -69.31932392
43.90803	-70.91702	5573	10			952	 No fishery	2	Stone Pond	Brownfield	Salmonids: <br	Other Species: Largemouth bass White sucker <br	Latitude: 43.90802531<br	Longitude: -70.9170213
44.09679	-70.86416	5580	10			375	 No fishery	2	Little Pond	Fryeburg	Salmonids: <br	Other Species: Bridled shiner Chain pickerel <br	Latitude: 44.09679242<br	Longitude: -70.86416181
43.2115	-70.69463	5588	10		13	279	 No fishery	1	Welchs Pond	York	Salmonids: <br	Other Species: Chain pickerel <br	Latitude: 43.21149531<br	Longitude: -70.69462563
43.67899	-70.68816	6895	10	4	7	275	 WW	7	Little Boyd Pond	Limington	Salmonids: <br	Other Species: Black crappie Brown bullhead Chain pickerel Golden shiner Largemouth bass Pumpkinseed Yellow perch <br	Latitude: 43.67898747<br	Longitude: -70.688163
45.22407	-70.87376	7726	10	3	3	2461	 CW	1	Cupsuptic Pond	Oxbow Twp	Salmonids: Brook trout <br	Other Species: <br	Latitude: 45.22406644<br	Longitude: -70.87376286
45.0605	-70.87822	7734	10			1510	 Bait	5	Fox Pond	Lower Cupsuptic Twp	Salmonids: <br	Other Species: Brown bullhead Common shiner Creek chub Longnose sucker White sucker <br	Latitude: 45.06049861<br	Longitude: -70.8782187
44.56179	-68.59197	8523	10		15	170	 Bait	2	Jesse Bog	"Ellsworth, Orland"	Salmonids: <br	Other Species: Brown bullhead Golden shiner <br	Latitude: 44.56179079<br	Longitude: -68.59197238
46.27891	-69.12373	9761	10	3	12	1045	 CW	3	Little Carpenter Pond	T7 R11 WELS	Salmonids: Brook trout <br	Other Species: Fathead minnow Threespine stickleback <br	Latitude: 46.27891056<br	Longitude: -69.1237255
46.64386	-67.9109	9771	10	5	14	555	 CW	9	Easton Pond	Easton	Salmonids: Brook trout <br	Other Species: Banded killifish Blacknose dace Common shiner Creek chub Lake chub Pearl dace Threespine stickleback White sucker <br	Latitude: 46.64385884<br	Longitude: -67.91090445
45.29226	-70.1069	0102	11	5	16	1199	 CW	2	Horseshoe Pond	Pierce Pond Twp	Salmonids: Brook trout <br	Other Species: Chain pickerel <br	Latitude: 45.29226416<br	Longitude: -70.10689788
45.21279	-69.66894	0284	11	1	3	1352	 No fishery	1	Hedgehog Pond	Blanchard Twp	Salmonids: <br	Other Species: Golden shiner <br	Latitude: 45.2127911<br	Longitude: -69.6689415
45.03764	-68.19902	0453	11	15	36	363	 CW	3	Loon Pond	T40 MD	Salmonids: Brook trout <br	Other Species: Fathead minnow Golden shiner <br	Latitude: 45.03764287<br	Longitude: -68.19901973
45.04153	-69.66784	0525	11			830	 WW	10	Trout Pond	Brighton Plt	Salmonids: Brook trout <br	Other Species: Bluegill Brown bullhead Chain pickerel Golden shiner Green sunfish Largemouth bass Pumpkinseed White sucker Yellow perch <br	Latitude: 45.04153034<br	Longitude: -69.66783545
45.80426	-69.04469	0594	11		13	1035	 Remote	1	Daisey Pond	T2 R10 WELS	Salmonids: Brook trout <br	Other Species: <br	Latitude: 45.80426005<br	Longitude: -69.04469154
45.79102	-69.10434	0618	11			1255	 Remote	1	Stratton Pond	Rainbow Twp	Salmonids: Brook trout <br	Other Species: <br	Latitude: 45.79102339<br	Longitude: -69.10434077
45.87254	-69.16356	0678	11	5	12	930	 CW	3	Carry Pond	T3 R11 WELS	Salmonids: Brook trout <br	Other Species: Golden shiner Northern redbelly dace <br	Latitude: 45.87253986<br	Longitude: -69.16356418
45.89103	-69.01305	0726	11	3	4	1054	 CW	1	Tracy Pond	T3 R10 WELS	Salmonids: Brook trout <br	Other Species: <br	Latitude: 45.89102917<br	Longitude: -69.01305479
45.25826	-69.33243	0846	11			330	 No fishery	6	Little Bennett Pond	Willimantic	Salmonids: <br	Other Species: Brown bullhead Chain pickerel Smallmouth bass White sucker Yellow perch <br	Latitude: 45.25825692<br	Longitude: -69.33243458
45.2988	-69.43564	0860	11	5	12	440	 WW	7	Badger Pond	Willimantic	Salmonids: <br	Other Species: Brown bullhead Chain pickerel Golden shiner White sucker Yellow perch <br	Latitude: 45.29879974<br	Longitude: -69.43563916
45.38454	-69.49251	0896	11	11	29	1032	 CW	1	Smith Pond	Elliottsville Twp	Salmonids: Brook trout <br	Other Species: <br	Latitude: 45.38453897<br	Longitude: -69.49251126
46.78181	-69.05554	1484	11			1390	 CW	3	Sag Pond	T13 R10 WELS	Salmonids: Brook trout <br	Other Species: Creek chub Northern redbelly dace <br	Latitude: 46.78180927<br	Longitude: -69.05554434
46.71113	-67.80906	1808	11	4	6	605	 Bait	7	Fischer Lake	Fort Fairfield	Salmonids: Brook trout <br	Other Species: Creek chub Golden shiner Northern redbelly dace Pearl dace Threespine stickleback White sucker <br	Latitude: 46.71113007<br	Longitude: -67.80905526
45.53533	-70.02461	2543	11	7	18	1573	 Remote	2	Little Lang Pond	Parlin Pond Twp	Salmonids: Brook trout <br	Other Species: Blacknose dace <br	Latitude: 45.53532921<br	Longitude: -70.02461471
45.5015	-70.02559	2556	11	4	8	1585	 CW	1	Lone Jack Pond	Johnson Mountain Twp	Salmonids: Brook trout <br	Other Species: <br	Latitude: 45.50149784<br	Longitude: -70.02559141
45.69557	-70.27019	2622	11	7	17	1450	 CW	3	Daymond Pond	Moose River	Salmonids: Brook trout <br	Other Species: Finescale dace Northern redbelly dace <br	Latitude: 45.69556879<br	Longitude: -70.27019389
46.46006	-69.03979	2746	11	5	8	1451	 CW	4	Ragged Pond	T9 R10 WELS	Salmonids: Brook trout <br	Other Species: Northern redbelly dace Pearl dace Threespine stickleback <br	Latitude: 46.46005792<br	Longitude: -69.03978935
46.39311	-69.1033	2796	11	5	8	1251	 CW	5	Little Bluffer Pond	T8 R11 WELS	Salmonids: Brook trout <br	Other Species: Creek chub Finescale dace Northern redbelly dace Pearl dace <br	Latitude: 46.39311122<br	Longitude: -69.10329578
43.83798	-70.90629	3168	11	6	12	515	 Mix	4	Chapman Pond	Porter	Salmonids: Brook trout <br	Other Species: American eel Brown bullhead Chain pickerel <br	Latitude: 43.8379827<br	Longitude: -70.90628952
44.64289	-70.55678	3508	11	6	15	1211	 CW	2	Birch Pond	Roxbury	Salmonids: Brook trout <br	Other Species: Brown bullhead <br	Latitude: 44.64288674<br	Longitude: -70.55677516
44.3486	-70.41134	3614	11	14	21	891	 CW	3	Cushman Pond	Sumner	Salmonids: Brook trout <br	Other Species: Brown bullhead Golden shiner <br	Latitude: 44.34859708<br	Longitude: -70.41133695
43.59382	-70.86717	3906	11		5	455	 CW	9	Spicer Pond	Shapleigh	Salmonids: Brook trout <br	Other Species: American eel Blacknose dace Brown bullhead Creek chubsucker Golden shiner Pumpkinseed Slimy sculpin White sucker <br	Latitude: 43.59381669<br	Longitude: -70.86717
45.44548	-69.98624	4078	11	14	40	1150	 CW	1	Tobey Pond	Johnson Mountain Twp	Salmonids: Brook trout <br	Other Species: <br	Latitude: 45.44547575<br	Longitude: -69.98623762
46.2917	-68.97284	4144	11			791	 CW	11	Little Caribou Pond	T7 R10 WELS	Salmonids: Brook trout <br	Other Species: Banded killifish Common shiner Creek chub Fallfish Finescale dace Golden shiner Lake chub Redbreast sunfish White sucker Yellow perch <br	Latitude: 46.29169542<br	Longitude: -68.97284053
46.13925	-68.84234	4236	11	8	15	931	 CW	2	High Pond	Trout Brook Twp	Salmonids: Brook trout <br	Other Species: Blacknose dace <br	Latitude: 46.13924615<br	Longitude: -68.84234435
44.76147	-68.53804	4266	11	2	3	378	 Bait	6	Little Burnt Pond	Clifton	Salmonids: <br	Other Species: Banded killifish Creek chub Golden shiner Ninespine stickleback Pearl dace White sucker <br	Latitude: 44.76146692<br	Longitude: -68.53804045
44.17685	-69.12934	4816	11	10	15	250	 WW	8	Rocky Pond	Rockport	Salmonids: <br	Other Species: American eel Brown bullhead Chain pickerel Golden shiner Pumpkinseed Smallmouth bass White perch White sucker <br	Latitude: 44.17685191<br	Longitude: -69.12933658
43.94728	-69.25813	4866	11	7	14	36	 No fishery	3	Howard Pond	Saint George	Salmonids: <br	Other Species: American eel Banded killifish Golden shiner <br	Latitude: 43.94728239<br	Longitude: -69.25812671
44.42096	-69.19061	4878	11	9	16	225	 WW	7	Dolliff Pond	Morrill	Salmonids: <br	Other Species: Brown bullhead Chain pickerel Golden shiner Largemouth bass Pumpkinseed White sucker Yellow perch <br	Latitude: 44.42096317<br	Longitude: -69.19061015
45.30308	-70.45275	5134	11	6	14	1586	 CW	2	Everett Pond	King & Bartlett Twp	Salmonids: Brook trout <br	Other Species: Lake chub <br	Latitude: 45.30307985<br	Longitude: -70.45274694
45.35432	-70.29113	5146	11	1	1	1262	 No fishery	1	Lost Pond	T3 R5 BKP WKR	Salmonids: <br	Other Species: Finescale dace <br	Latitude: 45.35431644<br	Longitude: -70.29112816
44.62291	-69.9005	5326	11			514	 No fishery	2	Ladd Pond	Mercer	Salmonids: <br	Other Species: Brown bullhead Finescale dace <br	Latitude: 44.62290954<br	Longitude: -69.90050035
44.4066	-69.41995	5744	11	21	43	475	 No fishery	5	Saban Pond	Palermo	Salmonids: Brook trout <br	Other Species: American eel Golden shiner Smallmouth bass White sucker <br	Latitude: 44.40660188<br	Longitude: -69.4199464
45.95373	-70.06698	8416	11			1650	 Remote	1	unnamed pond	Comstock Twp	Salmonids: Brook trout <br	Other Species: <br	Latitude: 45.9537264<br	Longitude: -70.06698326
43.76976	-69.96774	8887	11			40	 WW	7	Impoundment Pond	Harpswell	Salmonids: <br	Other Species: Alewife-searun American eel Chain pickerel Mummichog Pumpkinseed White perch <br	Latitude: 43.76976004<br	Longitude: -69.96773829
45.65029	-69.92088	8946	11			1075	 CW	1	unnamed pond	Rockwood Strip T2 R1 NBKP	Salmonids: <br	Other Species: Finescale dace <br	Latitude: 45.65029265<br	Longitude: -69.92088475
45.83411	-70.10414	9756	11			1305	 No fishery	1	Beaver Pond	Alder Brook Twp	Salmonids: Brook trout <br	Other Species: <br	Latitude: 45.83411107<br	Longitude: -70.10414317
45.29226	-70.09042	9913	11	8	25	1159	 CW	4	Pickerel Pond	Pierce Pond Twp	Salmonids: Brook trout Landlocked salmon <br	Other Species: Chain pickerel <br	Latitude: 45.29225989<br	Longitude: -70.09041865
44.97966	-69.76166	0064	12	4	5	621	 No fishery	7	Chase Pond	Solon	Salmonids: Brook trout <br	Other Species: Brown bullhead Creek chub Finescale dace Golden shiner Pumpkinseed White sucker <br	Latitude: 44.97966281<br	Longitude: -69.76166478
45.2931	-70.02646	0118	12	6	15	1186	 CW	5	Moose Pond	Bowtown Twp	Salmonids: Brook trout <br	Other Species: Banded killifish Finescale dace Golden shiner Northern redbelly dace <br	Latitude: 45.2931002<br	Longitude: -70.02645727
45.21295	-70.49357	0164	12	7	16	1186	 WW	5	Wethem (Welhurn) Pond	Eustis	Salmonids: Brook trout <br	Other Species: Blacknose dace Chain pickerel Creek chub White sucker <br	Latitude: 45.21294881<br	Longitude: -70.4935678
45.18155	-69.63017	0304	12			1332	 No fishery	5	Hilton Pond #1	Kingsbury Plt	Salmonids: <br	Other Species: Banded killifish Finescale dace Golden shiner Northern redbelly dace White sucker <br	Latitude: 45.18155319<br	Longitude: -69.63017496
45.44041	-69.7039	0328	12	8	40	1615	 Remote	3	Big Notch Pond	Little Squaw Twp	Salmonids: Brook trout <br	Other Species: Finescale dace Northern redbelly dace <br	Latitude: 45.44040502<br	Longitude: -69.70390345
44.23533	-69.3919	0343	12	14	31	288	 CW	9	Iron Pond	Washington	Salmonids: Brook trout Brown trout <br	Other Species: American eel Brown bullhead Finescale dace Golden shiner Lake chub Pumpkinseed White sucker <br	Latitude: 44.23532989<br	Longitude: -69.39189633
45.44806	-69.51528	0344	12	10	34	1272	 CW	9	Secret Pond	Greenville	Salmonids: Brook trout <br	Other Species: Banded killifish Creek chub Fathead minnow Finescale dace Golden shiner Lake chub Northern redbelly dace Rainbow smelt <br	Latitude: 45.44805816<br	Longitude: -69.51528167
45.44252	-69.50649	0346	12	7	15	1209	 CW	5	Salmon Pond	Greenville	Salmonids: Brook trout <br	Other Species: Finescale dace Golden shiner Northern redbelly dace Rainbow smelt <br	Latitude: 45.44251842<br	Longitude: -69.50648865
45.3315	-69.50023	0382	12	7	16	868	 CW	3	Moores Pond	Monson	Salmonids: Brook trout <br	Other Species: Finescale dace Golden shiner <br	Latitude: 45.33149959<br	Longitude: -69.50023428
45.34025	-69.50882	0384	12	15	38	1127	 CW	1	Lily Pond	Monson	Salmonids: Brook trout <br	Other Species: <br	Latitude: 45.34025168<br	Longitude: -69.50882479
45.66316	-69.26191	0450	12	4	5	1307	 CW	9	Long Bog	Shawtown Twp	Salmonids: Brook trout <br	Other Species: Brown bullhead Creek chub Fallfish Finescale dace Golden shiner Lake chub Northern redbelly dace White sucker <br	Latitude: 45.66315771<br	Longitude: -69.26191159
45.72989	-69.49904	0460	12	2	4	1379	 CW	7	Jewett Pond	Spencer Bay Twp	Salmonids: Brook trout <br	Other Species: Creek chub Fathead minnow Finescale dace Lake chub Northern redbelly dace White sucker <br	Latitude: 45.7298934<br	Longitude: -69.49903707
45.64124	-69.1526	0514	12	14	18	1336	 Remote	3	Birch Ridge Pond #1	TA R11 WELS	Salmonids: Brook trout <br	Other Species: Finescale dace Lake chub <br	Latitude: 45.64124041<br	Longitude: -69.1525978
45.78563	-69.13977	0620	12	7	22	1068	 Remote	2	Gould Pond	Rainbow Twp	Salmonids: Brook trout <br	Other Species: <br	Latitude: 45.78563038<br	Longitude: -69.13976507
46.34898	-67.84368	1010	12	2	2	595	 Bait	3	Jewell Lake	Monticello	Salmonids: <br	Other Species: Fathead minnow Northern redbelly dace Pearl dace <br	Latitude: 46.34898263<br	Longitude: -67.84368445
46.33037	-67.87141	1014	12	2	4	485	 Bait	4	Rideout Lake	Monticello	Salmonids: Brook trout <br	Other Species: Common shiner Pearl dace White sucker <br	Latitude: 46.33036607<br	Longitude: -67.8714115
46.95602	-68.42831	1656	12	6	17	723	 CW	12	Silver Lake	T15 R5 WELS	Salmonids: Brook trout <br	Other Species: Banded killifish Common shiner Creek chub Fathead minnow Finescale dace Lake chub Northern redbelly dace Pearl dace Threespine stickleback White sucker Yellow perch <br	Latitude: 46.95601757<br	Longitude: -68.42831064
46.92607	-68.44375	1658	12	6	9	775	 CW	2	Lost Pond	T15 R6 WELS	Salmonids: Brook trout <br	Other Species: Brown bullhead <br	Latitude: 46.92606797<br	Longitude: -68.44375278
46.6329	-68.11144	1779	12	2	14	510	 Bait	6	Alder Brook Lake	Chapman	Salmonids: Brook trout <br	Other Species: Blacknose dace Common shiner Creek chub Golden shiner White sucker <br	Latitude: 46.63290156<br	Longitude: -68.11144221
45.92479	-68.89547	2042	12	6	12	2454	 CW	1	Basin Pond (Upper)	Mount Katahdin Twp	Salmonids: Brook trout <br	Other Species: <br	Latitude: 45.92479226<br	Longitude: -68.89547188
45.95236	-70.23621	2462	12	3	6	1640	 Remote	2	Little Dingley Pond	T4 R5 NBKP	Salmonids: Brook trout <br	Other Species: Northern redbelly dace <br	Latitude: 45.95236169<br	Longitude: -70.23620798
45.89051	-70.22861	2476	12	11	24	1945	 Remote	1	Clearwater Pond	Prentiss Twp	Salmonids: Brook trout <br	Other Species: <br	Latitude: 45.89051482<br	Longitude: -70.22860708
45.86947	-70.17257	2498	12	2	5	1371	 CW	3	Hutch Pond	Hammond Twp	Salmonids: Brook trout <br	Other Species: Creek chub Finescale dace <br	Latitude: 45.86946826<br	Longitude: -70.17257103
45.54727	-70.47639	2666	12	2	4	1349	 CW	1	Little Fish Pond	Holeb Twp	Salmonids: Brook trout <br	Other Species: <br	Latitude: 45.54727412<br	Longitude: -70.47638986
46.00028	-69.01278	2734	12			1695	 CW	1	Center Pond	T4 R10 WELS	Salmonids: Brook trout <br	Other Species: <br	Latitude: 46.00027811<br	Longitude: -69.01277939
43.76141	-70.50844	3404	12	11	39	242	 Mix	8	Otter Pond #2	Standish	Salmonids: Brook trout <br	Other Species: Brown bullhead Chain pickerel Golden shiner Largemouth bass Pumpkinseed White sucker Yellow perch <br	Latitude: 43.76140755<br	Longitude: -70.50844076
46.183	-68.41673	3638	12	4	6	795	 CW	5	Gilman Pond	Moro Plt	Salmonids: Brook trout <br	Other Species: Creek chub Finescale dace Pearl dace White sucker <br	Latitude: 46.18299688<br	Longitude: -68.4167348
46.15005	-68.40001	3648	12	5	8	919	 CW	4	Green Pond	Moro Plt	Salmonids: Brook trout <br	Other Species: Finescale dace Northern redbelly dace Pearl dace <br	Latitude: 46.15005306<br	Longitude: -68.40001123
45.85266	-69.92792	4042	12			1663	 Remote	3	Dipper Pond	"Pittston Academy Grant, Soldiertown Twp"	Salmonids: <br	Other Species: Brown bullhead Golden shiner Lake chub <br	Latitude: 45.85265813<br	Longitude: -69.92791568
44.64755	-68.05932	4426	12		21	213	 WW	4	Anderson Pond	T10 SD	Salmonids: <br	Other Species: Banded killifish Creek chub Pumpkinseed <br	Latitude: 44.6475541<br	Longitude: -68.05932221
44.97328	-68.45465	4587	12		22	253	 CW	4	Pickerel Pond	T32 MD	Salmonids: Brook trout <br	Other Species: Brown bullhead Chain pickerel Golden shiner <br	Latitude: 44.9732829<br	Longitude: -68.45465204
44.3676	-68.36445	4618	12	8	17	70	 WW	3	Little Round Pond	Mount Desert	Salmonids: <br	Other Species: Chain pickerel Pumpkinseed White sucker <br	Latitude: 44.36760294<br	Longitude: -68.36444605
43.69172	-70.65338	5012	12	18	61	255	 No fishery	2	Sand Pond	Limington	Salmonids: <br	Other Species: Golden shiner Rainbow smelt <br	Latitude: 43.69172269<br	Longitude: -70.65338016
43.54777	-70.67467	5030	12			275	 No fishery	3	Tarwater Pond	Lyman	Salmonids: <br	Other Species: Brown bullhead Chain pickerel Common shiner <br	Latitude: 43.54776748<br	Longitude: -70.67466914
44.55896	-69.99806	5178	12	10	37	834	 WW	5	Davis Pond	Vienna	Salmonids: Brook trout <br	Other Species: Brown bullhead Chain pickerel Golden shiner Smallmouth bass <br	Latitude: 44.55896372<br	Longitude: -69.99806413
44.52416	-70.0886	5212	12	12	19	363	 No fishery	1	Round Pond	Chesterville	Salmonids: <br	Other Species: Yellow perch <br	Latitude: 44.5241555<br	Longitude: -70.08860098
44.58204	-69.95993	5328	12	7	20	956	 CW	5	McIntire Pond	New Sharon	Salmonids: Brook trout <br	Other Species: Blacknose dace Creek chub Golden shiner Northern redbelly dace <br	Latitude: 44.58204299<br	Longitude: -69.95993129
43.74583	-69.7875	5676	12	5	7	10	 No fishery	1	Silver Lake	Phippsburg	Salmonids: Brook trout <br	Other Species: <br	Latitude: 43.74583199<br	Longitude: -69.78749857
44.0574	-69.39195	5714	12	19	59	95	 CW	5	Peter's (Gross) Pond	Waldoboro	Salmonids: Brook trout <br	Other Species: American eel Banded killifish Golden shiner Yellow perch <br	Latitude: 44.05740362<br	Longitude: -69.39194838
46.03411	-68.29088	8514	12			455	 No fishery	1	Rock Crusher Pond	Island Falls	Salmonids: Brook trout <br	Other Species: <br	Latitude: 46.0341133<br	Longitude: -68.29088236
45.52734	-70.36976	8980	12			1240	 Remote	1	unnamed pond	T5 R7 BKP WKR	Salmonids: Brook trout <br	Other Species: <br	Latitude: 45.52733583<br	Longitude: -70.36975792
46.88653	-68.74811	9755	12	3	5	861	 CW	3	Lucifee Pond	T14 R8 WELS	Salmonids: Brook trout <br	Other Species: Fathead minnow Northern redbelly dace <br	Latitude: 46.88653376<br	Longitude: -68.74810933
45.87552	-70.23173	9760	12	5	8	1650	 CW	6	Lower Welman Pond	Prentiss Twp	Salmonids: Brook trout <br	Other Species: Blacknose dace Common shiner Creek chub Finescale dace White sucker <br	Latitude: 45.87551855<br	Longitude: -70.23173366
46.1852	-67.84914	9777	12	12	26	405	 CW	9	Logan Lake	"Houlton, Littleton"	Salmonids: Brook trout <br	Other Species: American eel Banded killifish Creek chub Lake chub Northern redbelly dace Pumpkinseed White sucker Yellow perch <br	Latitude: 46.18520135<br	Longitude: -67.84913606
45.00716	-70.13206	0034	13	4	7	1238	 CW	2	Hid Pond	Kingfield	Salmonids: Brook trout <br	Other Species: Blacknose dace <br	Latitude: 45.00716211<br	Longitude: -70.13205915
45.39422	-70.20834	0134	13	2	4	1439	 CW	2	Little Gordon Pond	Lower Enchanted Twp	Salmonids: Brook trout <br	Other Species: Creek chub <br	Latitude: 45.39422437<br	Longitude: -70.20834125
45.43694	-70.00686	0162	13			1155	 No fishery	1	Little Wilson Hill Pd	Johnson Mountain Twp	Salmonids: Brook trout <br	Other Species: <br	Latitude: 45.43693811<br	Longitude: -70.00686128
45.33599	-68.23022	0235	13	12	29	286	 WW	3	Round Pond	"Lee, T3 R7 WELS"	Salmonids: Brook trout <br	Other Species: Brown bullhead Golden shiner <br	Latitude: 45.33599241<br	Longitude: -68.23021545
45.65669	-69.1768	0524	13	3	4	1386	 Remote	1	Little Rocky Pond	TA R11 WELS	Salmonids: Brook trout <br	Other Species: <br	Latitude: 45.65669339<br	Longitude: -69.17680382
45.31841	-69.46478	0872	13	9	22	750	 WW	3	Eighteen Pond	Monson	Salmonids: Brook trout <br	Other Species: Chain pickerel Golden shiner <br	Latitude: 45.31840752<br	Longitude: -69.46478088
45.43052	-69.45534	0907	13	5	17	1095	 Remote	3	Secret Pond	Elliottsville Twp	Salmonids: Brook trout <br	Other Species: Golden shiner Lake chub <br	Latitude: 45.43052054<br	Longitude: -69.45534001
44.82693	-67.9322	1216	13		5	296	 No fishery	5	Otter Pond	T24 MD BPP	Salmonids: <br	Other Species: Brown bullhead Fallfish Golden shiner Pumpkinseed White sucker <br	Latitude: 44.82692785<br	Longitude: -67.93219591
46.94681	-68.82721	1518	13	4	5	1092	 CW	5	Stink Pond	T15 R9 WELS	Salmonids: Brook trout <br	Other Species: Creek chub Finescale dace Northern redbelly dace Yellow perch <br	Latitude: 46.94681073<br	Longitude: -68.82720748
47.0133	-67.89271	1862	13	4	4	803	 CW	3	Little Black Brook Lake	Caswell	Salmonids: Brook trout <br	Other Species: Northern redbelly dace White sucker <br	Latitude: 47.01330467<br	Longitude: -67.89270912
46.06533	-69.75539	2422	13			1462	 CW	3	Mule Pond	Russell Pond Twp	Salmonids: Brook trout <br	Other Species: Blacknose dace Golden shiner <br	Latitude: 46.06533006<br	Longitude: -69.75538782
45.67362	-70.43129	2636	13	6	12	1603	 CW	1	Beaver Pond	Forsyth Twp	Salmonids: Brook trout <br	Other Species: <br	Latitude: 45.67362258<br	Longitude: -70.4312875
46.0578	-69.03833	2732	13	2	4	1401	 CW	3	Dwelley Pond	Nesourdnahunk Twp	Salmonids: Brook trout <br	Other Species: Blacknose dace Creek chub <br	Latitude: 46.05779799<br	Longitude: -69.03833466
45.30104	-70.79551	3344	13	5	7	2128	 CW	2	Little Northwest Pond	Massachusetts Gore	Salmonids: Brook trout <br	Other Species: Blacknose dace <br	Latitude: 45.30104189<br	Longitude: -70.79551444
46.14301	-68.38444	3651	13	3	4	946	 CW	4	Bradford Pond	Moro Plt	Salmonids: Brook trout <br	Other Species: American eel Golden shiner Northern redbelly dace <br	Latitude: 46.14300711<br	Longitude: -68.38444193
43.84848	-70.44335	3718	13			290	 Mix	4	Chaffin Pond	Windham	Salmonids: Brook trout <br	Other Species: Largemouth bass Pumpkinseed Yellow perch <br	Latitude: 43.84847887<br	Longitude: -70.44335113
43.60007	-70.9368	3930	13	5	9	539	 WW	10	Swan Pond	Acton	Salmonids: <br	Other Species: American eel Brown bullhead Chain pickerel Common shiner Creek chubsucker Golden shiner Largemouth bass Pumpkinseed White sucker Yellow perch <br	Latitude: 43.60006538<br	Longitude: -70.93679987
43.60389	-70.90417	3932	13	3	5	515	 WW	4	Smarts Pond	Newfield	Salmonids: <br	Other Species: Black crappie Chain pickerel Golden shiner Pumpkinseed <br	Latitude: 43.60388873<br	Longitude: -70.90416732
45.37869	-69.92236	4054	13	22	34	885	 CW	6	Fish Pond	Moxie Gore	Salmonids: Brook trout <br	Other Species: Fathead minnow Finescale dace Lake chub Northern redbelly dace Rainbow smelt <br	Latitude: 45.37869198<br	Longitude: -69.9223644
45.40146	-69.85025	4072	13			1027	 CW	8	Scribner Bog	Squaretown Twp	Salmonids: Brook trout <br	Other Species: Blacknose dace Common shiner Creek chub Fallfish Lake chub Northern redbelly dace White sucker <br	Latitude: 45.40145558<br	Longitude: -69.85024814
44.55805	-68.38784	4374	13	11	27	185	 CW	1	Simmons Pond	Hancock	Salmonids: Brook trout <br	Other Species: <br	Latitude: 44.5580455<br	Longitude: -68.38784487
44.57245	-69.97546	5332	13	4	12	885	 Bait	4	Boody Pond	Vienna	Salmonids: <br	Other Species: Banded killifish Brown bullhead Creek chub Golden shiner <br	Latitude: 44.57245129<br	Longitude: -69.97545737
43.71251	-69.84137	5678	13			15	 No fishery	4	Big (Cape Small) Pond	Phippsburg	Salmonids: <br	Other Species: Alewife-searun American eel Golden shiner Ninespine stickleback <br	Latitude: 43.71250795<br	Longitude: -69.84136673
43.29176	-70.78982	6967	13	2	5	185	 WW	2	Beaver Dam Pond	Berwick	Salmonids: <br	Other Species: Brown bullhead Chain pickerel <br	Latitude: 43.2917621<br	Longitude: -70.78981704
45.88425	-68.79589	9083	13		6	955	 CW	1	unnamed pond	T3 R8 WELS	Salmonids: Brook trout <br	Other Species: <br	Latitude: 45.88425366<br	Longitude: -68.79589369
47.0685	-68.84774	9277	13		8	1450	 Remote	2	Horseshoe Pond	T16 R9 WELS	Salmonids: Brook trout <br	Other Species: Northern redbelly dace <br	Latitude: 47.06849638<br	Longitude: -68.84774144
45.03521	-67.28396	9673	13	16	34	256	 CW	5	Ledge (Bald Ledge) Pond	Charlotte	Salmonids: Brook trout <br	Other Species: Chain pickerel Golden shiner Ninespine stickleback Rainbow smelt <br	Latitude: 45.03521271<br	Longitude: -67.283965
46.21125	-68.76676	9922	13			797	 CW	1	Little Mtn Catcher Pd	T6 R8 WELS	Salmonids: Brook trout <br	Other Species: <br	Latitude: 46.2112527<br	Longitude: -68.76675976
45.32117	-70.0779	0106	14	6	26	1187	 CW	1	Upper Kilgore Pond	"Bowtown Twp, Pierce Pond Twp"	Salmonids: Brook trout <br	Other Species: <br	Latitude: 45.3211655<br	Longitude: -70.07789748
45.36514	-70.2043	0136	14			1330	 No fishery	2	Redmond Pond	Lower Enchanted Twp	Salmonids: <br	Other Species: Creek chub Northern redbelly dace <br	Latitude: 45.36513722<br	Longitude: -70.20429597
45.3487	-69.51868	0364	14			1274	 CW	2	McLellan Pond	"Shirley, Elliotsville Twp"	Salmonids: Brook trout <br	Other Species: Creek chub <br	Latitude: 45.34869703<br	Longitude: -69.51868154
45.31338	-69.54996	0374	14	14	40	1204	 CW	5	Upper Doughty Pond	Monson	Salmonids: Brook trout <br	Other Species: Creek chub Golden shiner Northern redbelly dace Rainbow smelt <br	Latitude: 45.3133838<br	Longitude: -69.54996178
45.53935	-69.05525	0472	14	4	9	1137	 CW	2	Gauntlet Pond	TB R10 WELS	Salmonids: Brook trout <br	Other Species: Blacknose dace <br	Latitude: 45.53934863<br	Longitude: -69.05525058
45.62324	-69.18359	0494	14	6	11	1485	 Remote	3	Big Boardway (Boardman) Pond	TA R11 WELS	Salmonids: Brook trout <br	Other Species: Creek chub Pearl dace <br	Latitude: 45.62324225<br	Longitude: -69.18358773
45.78813	-69.05036	0590	14	7	35	778	 Remote	2	Big Minister Pond	T2 R10 WELS	Salmonids: Brook trout <br	Other Species: <br	Latitude: 45.78812776<br	Longitude: -69.0503601
45.82351	-69.00939	0598	14		14	810	 Remote	2	Pitman Pond	T2 R10 WELS	Salmonids: <br	Other Species: Redbreast sunfish <br	Latitude: 45.82351237<br	Longitude: -69.00939113
45.80683	-69.21634	0656	14			1005	 Remote	2	Bean Pond	T2 R12 WELS	Salmonids: Brook trout <br	Other Species: Finescale dace <br	Latitude: 45.80683296<br	Longitude: -69.21633854
45.88741	-69.07969	0670	14			1210	 Remote	3	Beaver Pond	T3 R11 WELS	Salmonids: Brook trout <br	Other Species: Finescale dace Northern redbelly dace <br	Latitude: 45.88740508<br	Longitude: -69.07969039
45.86032	-69.1264	0676	14			1195	 CW	2	Rocky Pond	T3 R11 WELS	Salmonids: Brook trout <br	Other Species: Finescale dace <br	Latitude: 45.86031587<br	Longitude: -69.12640138
45.9093	-69.07827	0692	14			1125	 Remote	1	Polly Pond	T3 R11 WELS	Salmonids: Brook trout <br	Other Species: <br	Latitude: 45.90929536<br	Longitude: -69.07826983
45.90117	-69.04482	0714	14	5	12	1075	 CW	1	Draper Pond	T3 R10 WELS	Salmonids: Brook trout <br	Other Species: <br	Latitude: 45.90116738<br	Longitude: -69.04481755
46.01364	-67.91279	1046	14	4	5	501	 WW	2	Hunter Pond	Linneus	Salmonids: <br	Other Species: Brown bullhead Chain pickerel <br	Latitude: 46.01363891<br	Longitude: -67.91278507
46.89123	-68.89431	1538	14	18	37	989	 CW	12	First Chase Pond	T14 R9 WELS	Salmonids: Brook trout Lake trout <br	Other Species: Blacknose dace Brook stickleback Common shiner Creek chub Finescale dace Lake chub Northern redbelly dace Slimy sculpin Threespine stickleback White sucker <br	Latitude: 46.89123046<br	Longitude: -68.8943133
47.12199	-68.76397	1556	14	3	4	1071	 CW	3	Gilbert Pond	Saint John Plt	Salmonids: Brook trout <br	Other Species: Blacknose dace Northern redbelly dace <br	Latitude: 47.12198528<br	Longitude: -68.76397197
47.18645	-68.35535	1676	14	4	6	595	 CW	6	Dickey Pond	T17 R5 WELS	Salmonids: Brook trout <br	Other Species: Common shiner Creek chub Northern redbelly dace Threespine stickleback White sucker <br	Latitude: 47.18644616<br	Longitude: -68.35534596
46.72383	-67.85563	1813	14		19	585	 CW	3	Bryant Pond	Fort Fairfield	Salmonids: Brook trout Rainbow trout <br	Other Species: Pearl dace <br	Latitude: 46.72383465<br	Longitude: -67.85563148
46.61893	-68.95123	1976	14	2	3	1076	 Bait	5	Caribou Pond	"T11 R9 WELS, T11 R10 WELS"	Salmonids: Brook trout <br	Other Species: Blacknose dace Creek chub Finescale dace Northern redbelly dace <br	Latitude: 46.61893056<br	Longitude: -68.95122969
45.92647	-68.85715	2040	14	3	4	1495	 CW	1	Sandy Stream Pond	Mount Katahdin Twp	Salmonids: Brook trout <br	Other Species: <br	Latitude: 45.92647368<br	Longitude: -68.85714721
45.03727	-68.77858	2154	14	5	12	192	 No fishery	4	Pug Pond	Alton	Salmonids: Brook trout <br	Other Species: Brown bullhead Chain pickerel Golden shiner <br	Latitude: 45.03727083<br	Longitude: -68.77858138
46.08837	-68.53205	2200	14	3	5	804	 CW	8	Ackley Pond	Mount Chase	Salmonids: Brook trout <br	Other Species: Banded killifish Blacknose dace Blacknose shinerCommon shiner Creek chub Ninespine stickleback White sucker <br	Latitude: 46.08836533<br	Longitude: -68.5320528
45.84889	-68.68833	2316	14	8	13	819	 CW	2	Trout Pond	Soldiertown Twp	Salmonids: Brook trout <br	Other Species: Golden shiner <br	Latitude: 45.84888806<br	Longitude: -68.68833173
46.36517	-69.65048	2974	14	9	24	1287	 Remote	3	Little Wadleigh Pond	T8 R15 WELS	Salmonids: Brook trout <br	Other Species: Finescale dace Northern redbelly dace <br	Latitude: 46.36516823<br	Longitude: -69.65047835
46.27454	-69.65591	2990	14			1206	 No fishery	2	Pine Pond	T7 R15 WELS	Salmonids: <br	Other Species: Finescale dace Northern redbelly dace <br	Latitude: 46.27453911<br	Longitude: -69.65591049
43.85516	-70.89321	3178	14	9	21	415	 CW	6	Jaybird Pond	"Hiram, Porter"	Salmonids: Brook trout Rainbow trout <br	Other Species: Brown bullhead Golden shiner Pumpkinseed White sucker <br	Latitude: 43.85515794<br	Longitude: -70.89320575
44.91866	-70.52544	3546	14	6	22	2620	 Remote	2	Eddy Pond	Sandy River Plt	Salmonids: Brook trout <br	Other Species: Brook stickleback <br	Latitude: 44.91865826<br	Longitude: -70.52543775
44.89639	-70.54351	3564	14	6	21	1701	 CW	9	Lower Sandy River Pond	Sandy River Plt	Salmonids: Brook trout <br	Other Species: Blacknose dace Brown bullhead Creek chub Golden shiner Lake chub Longnose sucker Rainbow smelt White sucker <br	Latitude: 44.89639075<br	Longitude: -70.54351029
44.2448	-70.08701	3804	14	9	30	325	 WW	7	Island Pond	Leeds	Salmonids: <br	Other Species: Banded killifish Brown bullhead Chain pickerel Golden shiner Largemouth bass Pumpkinseed Smallmouth bass <br	Latitude: 44.24480045<br	Longitude: -70.08701183
45.18272	-70.98046	3972	14	12	18	1633	 CW	5	Otter Pond	Parmachenee Twp	Salmonids: Brook trout <br	Other Species: Longnose sucker Northern redbelly dace Slimy sculpin White sucker <br	Latitude: 45.18271691<br	Longitude: -70.98046047
45.8759	-69.88271	4046	14			1233	 Remote	1	Socatean Pond #2	Plymouth Twp	Salmonids: Brook trout <br	Other Species: <br	Latitude: 45.87589944<br	Longitude: -69.88271324
45.60358	-69.90691	4110	14	4	15	1285	 CW	4	Otter Pond	Sandwich Academy Grant Twp	Salmonids: Brook trout <br	Other Species: Lake chub Northern redbelly dace Pearl dace <br	Latitude: 45.60357691<br	Longitude: -69.90690982
44.66258	-68.62804	4304	14		23	590	 Bait	3	Mitchell Pond	Dedham	Salmonids: <br	Other Species: Banded killifish Finescale dace Golden shiner <br	Latitude: 44.66257556<br	Longitude: -68.62804166
44.1475	-68.41701	4668	14	10	38	96	 CW	3	Goose Pond	Swans Island	Salmonids: Brook trout <br	Other Species: Golden shiner Yellow perch <br	Latitude: 44.14749621<br	Longitude: -68.41701341
44.49787	-69.04169	4824	14	9	13	270	 CW	7	Nichols Pond	Swanville	Salmonids: <br	Other Species: American eel Banded killifish Fallfish Finescale dace Golden shiner Pumpkinseed White sucker <br	Latitude: 44.49786804<br	Longitude: -69.04168814
43.84157	-69.86851	5226	14	6	15	92	 WW	4	Houghton Pond	Bath	Salmonids: <br	Other Species: Chain pickerel Yellow perch <br	Latitude: 43.84157221<br	Longitude: -69.8685126
43.20158	-70.59556	5606	14	3	4	30	 No fishery	2	Passaconway (Summit) Pond	York	Salmonids: <br	Other Species: Brown bullhead Chain pickerel <br	Latitude: 43.201581<br	Longitude: -70.59556324
46.50819	-69.08761	5774	14	4	7	1475	 CW	2	Peaked Mountain Pond	"T10 R10 WELS, T10 R11 WELS"	Salmonids: Brook trout <br	Other Species: Golden shiner <br	Latitude: 46.50818704<br	Longitude: -69.08760957
44.2993	-70.81646	6755	14	20	29	790	 CW	5	Round Pond	Albany Twp	Salmonids: Brook trout <br	Other Species: Blacknose dace Brown bullhead Chain pickerel Golden shiner <br	Latitude: 44.29929855<br	Longitude: -70.81645558
45.5127	-70.03033	9855	14	3	9	1595	 CW	2	Durgin Pond	Johnson Mountain Twp	Salmonids: Brook trout <br	Other Species: Blacknose dace <br	Latitude: 45.51270493<br	Longitude: -70.03032638
44.93495	-70.10715	0010	15			787	 WW	2	Pennell Pond	New Portland	Salmonids: <br	Other Species: Brown bullhead <br	Latitude: 44.93495256<br	Longitude: -70.10714802
45.19573	-69.93691	0230	15			1250	 CW	4	Decker Pond #2	Caratunk	Salmonids: Brook trout <br	Other Species: Golden shiner Lake chub Northern redbelly dace <br	Latitude: 45.19572993<br	Longitude: -69.93690723
45.51305	-69.51158	0400	15	3	6	1062	 CW	7	Little Mud Pond	Greenville	Salmonids: Brook trout <br	Other Species: Common shiner Finescale dace Golden shiner Lake chub Northern redbelly dace Yellow perch <br	Latitude: 45.5130453<br	Longitude: -69.51157596
45.72956	-69.15213	0562	15	5	9	1105	 CW	1	Prentiss Pond	T1 R11 WELS	Salmonids: Brook trout <br	Other Species: <br	Latitude: 45.72955737<br	Longitude: -69.15213037
45.8101	-69.12221	0616	15	11	34	1240	 Remote	2	Doughnut Pond	Rainbow Twp	Salmonids: Brook trout <br	Other Species: Blacknose dace <br	Latitude: 45.810097<br	Longitude: -69.12220937
45.38003	-69.48855	0898	15			996	 CW	3	Prescott Pond	Elliottsville Twp	Salmonids: Brook trout <br	Other Species: Golden shiner Northern redbelly dace <br	Latitude: 45.38002804<br	Longitude: -69.48855133
45.37634	-69.48074	0902	15			908	 CW	4	Moose Pond	Elliottsville Twp	Salmonids: Brook trout <br	Other Species: Creek chub Finescale dace Golden shiner <br	Latitude: 45.37634336<br	Longitude: -69.48074362
44.74931	-67.29931	1360	15			71	 WW	5	Holmes Pond	Whiting	Salmonids: Brook trout <br	Other Species: Chain pickerel Creek chub Ninespine stickleback Yellow perch <br	Latitude: 44.74931354<br	Longitude: -67.29930992
46.94375	-68.85345	1521	15	10	18	1247	 CW	1	Upper Pond	T15 R9 WELS	Salmonids: Brook trout <br	Other Species: <br	Latitude: 46.94374714<br	Longitude: -68.85344733
46.30749	-68.11249	1766	15	1	2	895	 CW	4	Carlisle Pond	T8 R3 WELS	Salmonids: Brook trout <br	Other Species: Blacknose dace Creek chub Northern redbelly dace <br	Latitude: 46.30749241<br	Longitude: -68.11248894
44.84845	-70.47722	2332	15	14	36	1140	 CW	4	Stetson Pond	Phillips	Salmonids: Brook trout <br	Other Species: American eel Northern redbelly dace Redbreast sunfish <br	Latitude: 44.84844625<br	Longitude: -70.47721629
46.00252	-70.02855	2450	15	2	2	1481	 No fishery	1	Spencer Pond	Comstock Twp	Salmonids: <br	Other Species: Finescale dace <br	Latitude: 46.0025175<br	Longitude: -70.02855205
45.89375	-70.06365	2518	15	1	2	1523	 No fishery	2	Cunningham Pond	Pittston Academy Grant	Salmonids: <br	Other Species: Blacknose dace Creek chub <br	Latitude: 45.89374647<br	Longitude: -70.06364583
45.5071	-70.02816	2554	15	3	14	1590	 CW	1	Little Berry Pond	Johnson Mountain Twp	Salmonids: Brook trout <br	Other Species: <br	Latitude: 45.50709725<br	Longitude: -70.02816314
45.65329	-70.41748	2638	15	14	34	1290	 CW	2	Smith Pond	Forsyth Twp	Salmonids: Brook trout <br	Other Species: Finescale dace <br	Latitude: 45.65329431<br	Longitude: -70.41747723
45.50722	-70.35933	2678	15			1219	 Remote	1	Tobey Pond #3	T5 R7 BKP WKR	Salmonids: Brook trout <br	Other Species: <br	Latitude: 45.5072184<br	Longitude: -70.35932672
44.89621	-70.9909	3106	15	11	32	2045	 Remote	1	Aziscohos Pond	Magalloway Plt	Salmonids: Brook trout <br	Other Species: <br	Latitude: 44.89621445<br	Longitude: -70.9908978
44.37042	-70.8742	3260	15	6	23	868	 Remote	5	Trout Pond	Mason Twp	Salmonids: Brook trout <br	Other Species: Golden shiner Rainbow smelt White sucker <br	Latitude: 44.37041821<br	Longitude: -70.87419884
45.29806	-70.97207	3360	15	6	7	1945	 CW	3	Abbie Pond	Bowmantown Twp	Salmonids: Brook trout <br	Other Species: Longnose sucker White sucker <br	Latitude: 45.29806254<br	Longitude: -70.972074
44.26337	-70.70139	3492	15			855	 No fishery	3	Speck Pond #2	Norway	Salmonids: Brook trout <br	Other Species: Chain pickerel Golden shiner <br	Latitude: 44.2633735<br	Longitude: -70.70139208
44.59076	-70.66635	3516	15	4	7	1013	 WW	2	Horseshoe Pond	Andover	Salmonids: <br	Other Species: Brown bullhead Chain pickerel <br	Latitude: 44.59075899<br	Longitude: -70.66634694
44.9134	-70.49899	3550	15	7	13	2130	 Remote	2	Saddleback Pond	Sandy River Plt	Salmonids: Brook trout <br	Other Species: Blacknose dace <br	Latitude: 44.91340293<br	Longitude: -70.49898906
44.82185	-70.68823	3586	15	8	30	2160	 CW	3	Spencer Pond	Township D	Salmonids: Brook trout <br	Other Species: Golden shiner Rainbow smelt <br	Latitude: 44.82184802<br	Longitude: -70.68823012
44.38469	-70.41515	3600	15	10	17	489	 WW	5	Little Labrador Pond	Sumner	Salmonids: <br	Other Species: Brown bullhead Chain pickerel Pumpkinseed White sucker <br	Latitude: 44.38468815<br	Longitude: -70.41515384
44.195	-70.23833	3798	15	8	14	335	 WW	7	Lard Pond	Turner	Salmonids: <br	Other Species: Brown bullhead Chain pickerel Golden shiner Largemouth bass White perch White sucker Yellow perch <br	Latitude: 44.19499941<br	Longitude: -70.23832706
46.46239	-68.97117	4184	15	1	3	1108	 Bait	2	Smith Brook Pond	T9 R10 WELS	Salmonids: <br	Other Species: Creek chub Pearl dace <br	Latitude: 46.46239007<br	Longitude: -68.97117251
46.00713	-68.76697	4242	15		5	892	 Remote	2	Hathorn Pond	T4 R8 WELS	Salmonids: Brook trout <br	Other Species: White sucker <br	Latitude: 46.00713204<br	Longitude: -68.76696539
44.71663	-68.44747	4360	15	13	27	260	 CW	4	Youngs Pond	Otis	Salmonids: Brook trout <br	Other Species: Banded killifish Golden shiner Threespine stickleback <br	Latitude: 44.71662525<br	Longitude: -68.44747458
45.25962	-70.55489	5050	15			1189	 CW	6	Chase Pond	Jim Pond Twp	Salmonids: Brook trout <br	Other Species: Common shiner Fathead minnow Finescale dace White sucker Yellow perch <br	Latitude: 45.2596242<br	Longitude: -70.55489257
45.47426	-70.30682	5102	15	6	13	1103	 CW	8	Toby Pond	Hobbstown Twp	Salmonids: Brook trout <br	Other Species: Common shiner Creek chub Fallfish Northern redbelly dace Pumpkinseed White sucker Yellow perch <br	Latitude: 45.4742611<br	Longitude: -70.30682492
44.37052	-69.91637	5306	15	9	13	265	 WW	7	Brainard Pond	Readfield	Salmonids: <br	Other Species: Brown bullhead Chain pickerel Golden shiner Largemouth bass Pumpkinseed White sucker Yellow perch <br	Latitude: 44.37051813<br	Longitude: -69.91637241
43.6321	-70.31583	5638	15	6	16	15	 No fishery	12	Clark Pond	South Portland	Salmonids: <br	Other Species: American eel Banded killifish Brown bullhead Chain pickerel Golden shiner Largemouth bass Ninespine stickleback Pumpkinseed Threespine stickleback White perch White sucker Yellow perch <br	Latitude: 43.63210307<br	Longitude: -70.31582916
44.43905	-69.39833	5746	15	14	37	802	 CW	3	Prescott Pond	Palermo	Salmonids: Brook trout <br	Other Species: Banded killifish Golden shiner <br	Latitude: 44.43905403<br	Longitude: -69.39833275
44.82324	-68.04308	6062	15	12	18	245	 WW	11	unnamed pond	Beddington	Salmonids: <br	Other Species: Banded killifish Blacknose dace Brown bullhead Chain pickerel Common shiner Creek chub Fallfish Pumpkinseed Redbreast sunfish White sucker Yellow perch <br	Latitude: 44.82324203<br	Longitude: -68.04308067
45.23018	-69.82114	7106	15			990	 CW	3	Moxie Bog	Bald Mountain Twp T2 R3	Salmonids: Brook trout <br	Other Species: Smallmouth bass White sucker <br	Latitude: 45.23018342<br	Longitude: -69.82113529
47.27555	-68.30682	9397	15	3	6	605	 Bait	7	Brishlotte Lake	Saint Agatha	Salmonids: <br	Other Species: Brown bullhead Common shiner Creek chub Golden shiner Pearl dace Threespine stickleback White sucker <br	Latitude: 47.27555418<br	Longitude: -68.30681965
43.60944	-70.83278	9697	15	6	11	448	 WW	1	Little Poverty Pond	Shapleigh	Salmonids: Brook trout <br	Other Species: <br	Latitude: 43.60944089<br	Longitude: -70.83277887
46.92146	-68.88301	9781	15	9	16	1435	 CW	1	North Pond	T14 R9 WELS	Salmonids: Brook trout <br	Other Species: <br	Latitude: 46.92146119<br	Longitude: -68.88301483
